{
"type": "FeatureCollection",
"features": [
{ "type": "Feature", "properties": { "SchoolName": "River Rock School", "Enrol_Elem": 903, "Enrol_Midl": 0, "Enrol_High": 0, "PublicElem": 903, "PublicMidl": 0, "PublicHigh": 0, "PriChaElem": 0, "PriChaMidl": 0, "PriChaHigh": 0 }, "geometry": { "type": "Point", "coordinates": [ -111.876144388100002, 40.3939967341 ] } },
{ "type": "Feature", "properties": { "SchoolName": "Skyridge High School", "Enrol_Elem": 0, "Enrol_Midl": 0, "Enrol_High": 2989, "PublicElem": 0, "PublicMidl": 0, "PublicHigh": 2989, "PriChaElem": 0, "PriChaMidl": 0, "PriChaHigh": 0 }, "geometry": { "type": "Point", "coordinates": [ -111.848124332699996, 40.4260338347 ] } },
{ "type": "Feature", "properties": { "SchoolName": "Springside School", "Enrol_Elem": 903, "Enrol_Midl": 0, "Enrol_High": 0, "PublicElem": 903, "PublicMidl": 0, "PublicHigh": 0, "PriChaElem": 0, "PriChaMidl": 0, "PriChaHigh": 0 }, "geometry": { "type": "Point", "coordinates": [ -111.912913356199994, 40.349304390699999 ] } },
{ "type": "Feature", "properties": { "SchoolName": "Summit High", "Enrol_Elem": 0, "Enrol_Midl": 0, "Enrol_High": 72, "PublicElem": 0, "PublicMidl": 0, "PublicHigh": 72, "PriChaElem": 0, "PriChaMidl": 0, "PriChaHigh": 0 }, "geometry": { "type": "Point", "coordinates": [ -111.733244642599999, 40.278545063599999 ] } },
{ "type": "Feature", "properties": { "SchoolName": "American Academy of Innovation", "Enrol_Elem": 0, "Enrol_Midl": 252, "Enrol_High": 148, "PublicElem": 0, "PublicMidl": 0, "PublicHigh": 0, "PriChaElem": 0, "PriChaMidl": 252, "PriChaHigh": 148 }, "geometry": { "type": "Point", "coordinates": [ -112.020178952799995, 40.556911547600002 ] } },
{ "type": "Feature", "properties": { "SchoolName": "American Preparatory Academy - Accelerated School", "Enrol_Elem": 738, "Enrol_Midl": 592, "Enrol_High": 303, "PublicElem": 0, "PublicMidl": 0, "PublicHigh": 0, "PriChaElem": 738, "PriChaMidl": 592, "PriChaHigh": 303 }, "geometry": { "type": "Point", "coordinates": [ -111.978003812, 40.704715090100002 ] } },
{ "type": "Feature", "properties": { "SchoolName": "American Preparatory Academy - Salem", "Enrol_Elem": 409, "Enrol_Midl": 126, "Enrol_High": 0, "PublicElem": 0, "PublicMidl": 0, "PublicHigh": 0, "PriChaElem": 409, "PriChaMidl": 126, "PriChaHigh": 0 }, "geometry": { "type": "Point", "coordinates": [ -111.691318379199998, 40.036511221600001 ] } },
{ "type": "Feature", "properties": { "SchoolName": "Ascent Academies of Utah Lehi", "Enrol_Elem": 477, "Enrol_Midl": 125, "Enrol_High": 0, "PublicElem": 0, "PublicMidl": 0, "PublicHigh": 0, "PriChaElem": 477, "PriChaMidl": 125, "PriChaHigh": 0 }, "geometry": { "type": "Point", "coordinates": [ -111.884176616700003, 40.397820279100003 ] } },
{ "type": "Feature", "properties": { "SchoolName": "Athenian eAcademy", "Enrol_Elem": 469, "Enrol_Midl": 140, "Enrol_High": 64, "PublicElem": 0, "PublicMidl": 0, "PublicHigh": 0, "PriChaElem": 469, "PriChaMidl": 140, "PriChaHigh": 64 }, "geometry": { "type": "Point", "coordinates": [ -111.777432891, 40.370255810400003 ] } },
{ "type": "Feature", "properties": { "SchoolName": "Athlos Academy of Utah", "Enrol_Elem": 754, "Enrol_Midl": 60, "Enrol_High": 0, "PublicElem": 0, "PublicMidl": 0, "PublicHigh": 0, "PriChaElem": 754, "PriChaMidl": 60, "PriChaHigh": 0 }, "geometry": { "type": "Point", "coordinates": [ -112.032057586, 40.526450405399999 ] } },
{ "type": "Feature", "properties": { "SchoolName": "Birch Creek School", "Enrol_Elem": 591, "Enrol_Midl": 0, "Enrol_High": 0, "PublicElem": 591, "PublicMidl": 0, "PublicHigh": 0, "PriChaElem": 0, "PriChaMidl": 0, "PriChaHigh": 0 }, "geometry": { "type": "Point", "coordinates": [ -111.850862509099997, 41.841922814599997 ] } },
{ "type": "Feature", "properties": { "SchoolName": "Ridgeline High School", "Enrol_Elem": 0, "Enrol_Midl": 0, "Enrol_High": 1638, "PublicElem": 0, "PublicMidl": 0, "PublicHigh": 1638, "PriChaElem": 0, "PriChaMidl": 0, "PriChaHigh": 0 }, "geometry": { "type": "Point", "coordinates": [ -111.830106081899999, 41.685635197800003 ] } },
{ "type": "Feature", "properties": { "SchoolName": "Diamond Ridge High School", "Enrol_Elem": 0, "Enrol_Midl": 0, "Enrol_High": 103, "PublicElem": 0, "PublicMidl": 0, "PublicHigh": 103, "PriChaElem": 0, "PriChaMidl": 0, "PriChaHigh": 0 }, "geometry": { "type": "Point", "coordinates": [ -111.869116335800001, 40.587291991299999 ] } },
{ "type": "Feature", "properties": { "SchoolName": "Helper Middle", "Enrol_Elem": 0, "Enrol_Midl": 187, "Enrol_High": 0, "PublicElem": 0, "PublicMidl": 187, "PublicHigh": 0, "PriChaElem": 0, "PriChaMidl": 0, "PriChaHigh": 0 }, "geometry": { "type": "Point", "coordinates": [ -110.858937223500007, 39.689612696899999 ] } },
{ "type": "Feature", "properties": { "SchoolName": "Mont Harmon Middle", "Enrol_Elem": 0, "Enrol_Midl": 645, "Enrol_High": 0, "PublicElem": 0, "PublicMidl": 645, "PublicHigh": 0, "PriChaElem": 0, "PriChaMidl": 0, "PriChaHigh": 0 }, "geometry": { "type": "Point", "coordinates": [ -110.8125551734, 39.605694127100001 ] } },
{ "type": "Feature", "properties": { "SchoolName": "Canyon Creek School", "Enrol_Elem": 835, "Enrol_Midl": 0, "Enrol_High": 0, "PublicElem": 835, "PublicMidl": 0, "PublicHigh": 0, "PriChaElem": 0, "PriChaMidl": 0, "PriChaHigh": 0 }, "geometry": { "type": "Point", "coordinates": [ -111.910631530200007, 40.968377894600003 ] } },
{ "type": "Feature", "properties": { "SchoolName": "Eagle Bay School", "Enrol_Elem": 525, "Enrol_Midl": 0, "Enrol_High": 0, "PublicElem": 525, "PublicMidl": 0, "PublicHigh": 0, "PriChaElem": 0, "PriChaMidl": 0, "PriChaHigh": 0 }, "geometry": { "type": "Point", "coordinates": [ -111.928940897100006, 40.9816622767 ] } },
{ "type": "Feature", "properties": { "SchoolName": "Endeavour School", "Enrol_Elem": 890, "Enrol_Midl": 0, "Enrol_High": 0, "PublicElem": 890, "PublicMidl": 0, "PublicHigh": 0, "PriChaElem": 0, "PriChaMidl": 0, "PriChaHigh": 0 }, "geometry": { "type": "Point", "coordinates": [ -111.939099792899995, 41.003386995900001 ] } },
{ "type": "Feature", "properties": { "SchoolName": "Centennial School", "Enrol_Elem": 535, "Enrol_Midl": 0, "Enrol_High": 0, "PublicElem": 535, "PublicMidl": 0, "PublicHigh": 0, "PriChaElem": 0, "PriChaMidl": 0, "PriChaHigh": 0 }, "geometry": { "type": "Point", "coordinates": [ -109.984670201499995, 40.285578943300003 ] } },
{ "type": "Feature", "properties": { "SchoolName": "Entheos Academy Magna", "Enrol_Elem": 378, "Enrol_Midl": 102, "Enrol_High": 0, "PublicElem": 0, "PublicMidl": 0, "PublicHigh": 0, "PriChaElem": 378, "PriChaMidl": 102, "PriChaHigh": 0 }, "geometry": { "type": "Point", "coordinates": [ -112.064573051, 40.712836469400003 ] } },
{ "type": "Feature", "properties": { "SchoolName": "Franklin Discovery Academy", "Enrol_Elem": 576, "Enrol_Midl": 0, "Enrol_High": 0, "PublicElem": 0, "PublicMidl": 0, "PublicHigh": 0, "PriChaElem": 576, "PriChaMidl": 0, "PriChaHigh": 0 }, "geometry": { "type": "Point", "coordinates": [ -111.745296199799995, 40.296494990100001 ] } },
{ "type": "Feature", "properties": { "SchoolName": "Freedom Preparatory Academy", "Enrol_Elem": 840, "Enrol_Midl": 374, "Enrol_High": 146, "PublicElem": 0, "PublicMidl": 0, "PublicHigh": 0, "PriChaElem": 840, "PriChaMidl": 374, "PriChaHigh": 146 }, "geometry": { "type": "Point", "coordinates": [ -111.679520213499998, 40.246739982 ] } },
{ "type": "Feature", "properties": { "SchoolName": "Freedom Preparatory Academy - Vineyard", "Enrol_Elem": 546, "Enrol_Midl": 0, "Enrol_High": 0, "PublicElem": 0, "PublicMidl": 0, "PublicHigh": 0, "PriChaElem": 546, "PriChaMidl": 0, "PriChaHigh": 0 }, "geometry": { "type": "Point", "coordinates": [ -111.754771320299994, 40.3044521172 ] } },
{ "type": "Feature", "properties": { "SchoolName": "Helen M. Knight School", "Enrol_Elem": 773, "Enrol_Midl": 0, "Enrol_High": 0, "PublicElem": 773, "PublicMidl": 0, "PublicHigh": 0, "PriChaElem": 0, "PriChaMidl": 0, "PriChaHigh": 0 }, "geometry": { "type": "Point", "coordinates": [ -109.555279458200005, 38.581084102699997 ] } },
{ "type": "Feature", "properties": { "SchoolName": "Gearld Wright School", "Enrol_Elem": 706, "Enrol_Midl": 0, "Enrol_High": 0, "PublicElem": 706, "PublicMidl": 0, "PublicHigh": 0, "PriChaElem": 0, "PriChaMidl": 0, "PriChaHigh": 0 }, "geometry": { "type": "Point", "coordinates": [ -112.052351444600006, 40.704602557500003 ] } },
{ "type": "Feature", "properties": { "SchoolName": "Youth Educational Support School", "Enrol_Elem": 0, "Enrol_Midl": 16, "Enrol_High": 32, "PublicElem": 0, "PublicMidl": 16, "PublicHigh": 32, "PriChaElem": 0, "PriChaMidl": 0, "PriChaHigh": 0 }, "geometry": { "type": "Point", "coordinates": [ -111.878907294200005, 40.691028727099997 ] } },
{ "type": "Feature", "properties": { "SchoolName": "Greenwood Charter School", "Enrol_Elem": 328, "Enrol_Midl": 50, "Enrol_High": 0, "PublicElem": 0, "PublicMidl": 0, "PublicHigh": 0, "PriChaElem": 328, "PriChaMidl": 50, "PriChaHigh": 0 }, "geometry": { "type": "Point", "coordinates": [ -111.979648234699994, 41.274541644099997 ] } },
{ "type": "Feature", "properties": { "SchoolName": "Hawthorn Academy South Jordan", "Enrol_Elem": 625, "Enrol_Midl": 0, "Enrol_High": 0, "PublicElem": 0, "PublicMidl": 0, "PublicHigh": 0, "PriChaElem": 625, "PriChaMidl": 0, "PriChaHigh": 0 }, "geometry": { "type": "Point", "coordinates": [ -111.931832811199996, 40.543451497500001 ] } },
{ "type": "Feature", "properties": { "SchoolName": "Valley High School", "Enrol_Elem": 0, "Enrol_Midl": 0, "Enrol_High": 518, "PublicElem": 0, "PublicMidl": 0, "PublicHigh": 518, "PriChaElem": 0, "PriChaMidl": 0, "PriChaHigh": 0 }, "geometry": { "type": "Point", "coordinates": [ -111.901567407800002, 40.549025735100003 ] } },
{ "type": "Feature", "properties": { "SchoolName": "Delta North School", "Enrol_Elem": 443, "Enrol_Midl": 0, "Enrol_High": 0, "PublicElem": 443, "PublicMidl": 0, "PublicHigh": 0, "PriChaElem": 0, "PriChaMidl": 0, "PriChaHigh": 0 }, "geometry": { "type": "Point", "coordinates": [ -112.572078079, 39.353439906399998 ] } },
{ "type": "Feature", "properties": { "SchoolName": "Delta South School", "Enrol_Elem": 424, "Enrol_Midl": 0, "Enrol_High": 0, "PublicElem": 424, "PublicMidl": 0, "PublicHigh": 0, "PriChaElem": 0, "PriChaMidl": 0, "PriChaHigh": 0 }, "geometry": { "type": "Point", "coordinates": [ -112.574656075899995, 39.344277051500001 ] } },
{ "type": "Feature", "properties": { "SchoolName": "Maple Ridge School", "Enrol_Elem": 780, "Enrol_Midl": 0, "Enrol_High": 0, "PublicElem": 780, "PublicMidl": 0, "PublicHigh": 0, "PriChaElem": 0, "PriChaMidl": 0, "PriChaHigh": 0 }, "geometry": { "type": "Point", "coordinates": [ -111.6060143248, 40.123297234699997 ] } },
{ "type": "Feature", "properties": { "SchoolName": "Meadow Brook School", "Enrol_Elem": 692, "Enrol_Midl": 0, "Enrol_High": 0, "PublicElem": 692, "PublicMidl": 0, "PublicHigh": 0, "PriChaElem": 0, "PriChaMidl": 0, "PriChaHigh": 0 }, "geometry": { "type": "Point", "coordinates": [ -111.628507797200001, 40.156646713 ] } },
{ "type": "Feature", "properties": { "SchoolName": "Mt. Nebo Junior High", "Enrol_Elem": 0, "Enrol_Midl": 713, "Enrol_High": 0, "PublicElem": 0, "PublicMidl": 713, "PublicHigh": 0, "PriChaElem": 0, "PriChaMidl": 0, "PriChaHigh": 0 }, "geometry": { "type": "Point", "coordinates": [ -111.747649439, 40.036174322800001 ] } },
{ "type": "Feature", "properties": { "SchoolName": "Ben Lomond High", "Enrol_Elem": 0, "Enrol_Midl": 0, "Enrol_High": 1223, "PublicElem": 0, "PublicMidl": 0, "PublicHigh": 1223, "PriChaElem": 0, "PriChaMidl": 0, "PriChaHigh": 0 }, "geometry": { "type": "Point", "coordinates": [ -111.951111236599999, 41.249421404899998 ] } },
{ "type": "Feature", "properties": { "SchoolName": "Horace Mann School", "Enrol_Elem": 435, "Enrol_Midl": 0, "Enrol_High": 0, "PublicElem": 435, "PublicMidl": 0, "PublicHigh": 0, "PriChaElem": 0, "PriChaMidl": 0, "PriChaHigh": 0 }, "geometry": { "type": "Point", "coordinates": [ -111.945292147800004, 41.249037591499999 ] } },
{ "type": "Feature", "properties": { "SchoolName": "James Madison School", "Enrol_Elem": 426, "Enrol_Midl": 0, "Enrol_High": 0, "PublicElem": 426, "PublicMidl": 0, "PublicHigh": 0, "PriChaElem": 0, "PriChaMidl": 0, "PriChaHigh": 0 }, "geometry": { "type": "Point", "coordinates": [ -111.960199093499995, 41.219365179 ] } },
{ "type": "Feature", "properties": { "SchoolName": "Mound Fort Junior High", "Enrol_Elem": 0, "Enrol_Midl": 716, "Enrol_High": 0, "PublicElem": 0, "PublicMidl": 716, "PublicHigh": 0, "PriChaElem": 0, "PriChaMidl": 0, "PriChaHigh": 0 }, "geometry": { "type": "Point", "coordinates": [ -111.958724213400004, 41.241603904100003 ] } },
{ "type": "Feature", "properties": { "SchoolName": "Mount Ogden Junior High", "Enrol_Elem": 0, "Enrol_Midl": 871, "Enrol_High": 0, "PublicElem": 0, "PublicMidl": 871, "PublicHigh": 0, "PriChaElem": 0, "PriChaMidl": 0, "PriChaHigh": 0 }, "geometry": { "type": "Point", "coordinates": [ -111.947679425199993, 41.204542348799997 ] } },
{ "type": "Feature", "properties": { "SchoolName": "New Bridge School", "Enrol_Elem": 707, "Enrol_Midl": 0, "Enrol_High": 0, "PublicElem": 707, "PublicMidl": 0, "PublicHigh": 0, "PriChaElem": 0, "PriChaMidl": 0, "PriChaHigh": 0 }, "geometry": { "type": "Point", "coordinates": [ -111.9627278034, 41.227780424700001 ] } },
{ "type": "Feature", "properties": { "SchoolName": "Polk School", "Enrol_Elem": 666, "Enrol_Midl": 0, "Enrol_High": 0, "PublicElem": 666, "PublicMidl": 0, "PublicHigh": 0, "PriChaElem": 0, "PriChaMidl": 0, "PriChaHigh": 0 }, "geometry": { "type": "Point", "coordinates": [ -111.943290474099996, 41.217271559 ] } },
{ "type": "Feature", "properties": { "SchoolName": "Thomas O. Smith School", "Enrol_Elem": 494, "Enrol_Midl": 0, "Enrol_High": 0, "PublicElem": 494, "PublicMidl": 0, "PublicHigh": 0, "PriChaElem": 0, "PriChaMidl": 0, "PriChaHigh": 0 }, "geometry": { "type": "Point", "coordinates": [ -111.959072204600005, 41.203798748399997 ] } },
{ "type": "Feature", "properties": { "SchoolName": "Roots Charter High School", "Enrol_Elem": 0, "Enrol_Midl": 0, "Enrol_High": 197, "PublicElem": 0, "PublicMidl": 0, "PublicHigh": 0, "PriChaElem": 0, "PriChaMidl": 0, "PriChaHigh": 197 }, "geometry": { "type": "Point", "coordinates": [ -111.929435682900007, 40.722239736 ] } },
{ "type": "Feature", "properties": { "SchoolName": "Horizonte Instruction & Training Center", "Enrol_Elem": 0, "Enrol_Midl": 0, "Enrol_High": 258, "PublicElem": 0, "PublicMidl": 0, "PublicHigh": 258, "PriChaElem": 0, "PriChaMidl": 0, "PriChaHigh": 0 }, "geometry": { "type": "Point", "coordinates": [ -111.892176259899998, 40.742521704700003 ] } },
{ "type": "Feature", "properties": { "SchoolName": "Scholar Academy", "Enrol_Elem": 519, "Enrol_Midl": 119, "Enrol_High": 0, "PublicElem": 0, "PublicMidl": 0, "PublicHigh": 0, "PriChaElem": 519, "PriChaMidl": 119, "PriChaHigh": 0 }, "geometry": { "type": "Point", "coordinates": [ -112.294651264699993, 40.5493431254 ] } },
{ "type": "Feature", "properties": { "SchoolName": "Spectrum Academy - Pleasant Grove", "Enrol_Elem": 317, "Enrol_Midl": 167, "Enrol_High": 132, "PublicElem": 0, "PublicMidl": 0, "PublicHigh": 0, "PriChaElem": 317, "PriChaMidl": 167, "PriChaHigh": 132 }, "geometry": { "type": "Point", "coordinates": [ -111.752068637299999, 40.352815140799997 ] } },
{ "type": "Feature", "properties": { "SchoolName": "Success DSU", "Enrol_Elem": 0, "Enrol_Midl": 0, "Enrol_High": 232, "PublicElem": 0, "PublicMidl": 0, "PublicHigh": 0, "PriChaElem": 0, "PriChaMidl": 0, "PriChaHigh": 232 }, "geometry": { "type": "Point", "coordinates": [ -113.567382169200002, 37.105245812600003 ] } },
{ "type": "Feature", "properties": { "SchoolName": "Summit Academy - Bluffdale", "Enrol_Elem": 500, "Enrol_Midl": 0, "Enrol_High": 0, "PublicElem": 0, "PublicMidl": 0, "PublicHigh": 0, "PriChaElem": 500, "PriChaMidl": 0, "PriChaHigh": 0 }, "geometry": { "type": "Point", "coordinates": [ -111.942726546800003, 40.490860442600003 ] } },
{ "type": "Feature", "properties": { "SchoolName": "Summit Academy - Independence", "Enrol_Elem": 716, "Enrol_Midl": 256, "Enrol_High": 0, "PublicElem": 0, "PublicMidl": 0, "PublicHigh": 0, "PriChaElem": 716, "PriChaMidl": 256, "PriChaHigh": 0 }, "geometry": { "type": "Point", "coordinates": [ -111.91876666, 40.473094596400003 ] } },
{ "type": "Feature", "properties": { "SchoolName": "Syracuse Arts Academy - North", "Enrol_Elem": 748, "Enrol_Midl": 0, "Enrol_High": 0, "PublicElem": 0, "PublicMidl": 0, "PublicHigh": 0, "PriChaElem": 748, "PriChaMidl": 0, "PriChaHigh": 0 }, "geometry": { "type": "Point", "coordinates": [ -112.055190617600005, 41.109037141 ] } },
{ "type": "Feature", "properties": { "SchoolName": "Terra Academy", "Enrol_Elem": 350, "Enrol_Midl": 150, "Enrol_High": 132, "PublicElem": 0, "PublicMidl": 0, "PublicHigh": 0, "PriChaElem": 350, "PriChaMidl": 150, "PriChaHigh": 132 }, "geometry": { "type": "Point", "coordinates": [ -109.565223626900007, 40.452285560100002 ] } },
{ "type": "Feature", "properties": { "SchoolName": "West Desert High School", "Enrol_Elem": 0, "Enrol_Midl": 9, "Enrol_High": 0, "PublicElem": 0, "PublicMidl": 9, "PublicHigh": 0, "PriChaElem": 0, "PriChaMidl": 0, "PriChaHigh": 0 }, "geometry": { "type": "Point", "coordinates": [ -113.888799077800002, 39.644237084399997 ] } },
{ "type": "Feature", "properties": { "SchoolName": "Dugway", "Enrol_Elem": 51, "Enrol_Midl": 33, "Enrol_High": 27, "PublicElem": 51, "PublicMidl": 33, "PublicHigh": 27, "PriChaElem": 0, "PriChaMidl": 0, "PriChaHigh": 0 }, "geometry": { "type": "Point", "coordinates": [ -112.749151245299998, 40.226981721100003 ] } },
{ "type": "Feature", "properties": { "SchoolName": "Sterling School", "Enrol_Elem": 724, "Enrol_Midl": 0, "Enrol_High": 0, "PublicElem": 724, "PublicMidl": 0, "PublicHigh": 0, "PriChaElem": 0, "PriChaMidl": 0, "PriChaHigh": 0 }, "geometry": { "type": "Point", "coordinates": [ -112.292838528299995, 40.536377265399999 ] } },
{ "type": "Feature", "properties": { "SchoolName": "Uintah Middle School", "Enrol_Elem": 0, "Enrol_Midl": 750, "Enrol_High": 0, "PublicElem": 0, "PublicMidl": 750, "PublicHigh": 0, "PriChaElem": 0, "PriChaMidl": 0, "PriChaHigh": 0 }, "geometry": { "type": "Point", "coordinates": [ -109.546836435399996, 40.457780547699997 ] } },
{ "type": "Feature", "properties": { "SchoolName": "Vanguard Academy", "Enrol_Elem": 0, "Enrol_Midl": 244, "Enrol_High": 224, "PublicElem": 0, "PublicMidl": 0, "PublicHigh": 0, "PriChaElem": 0, "PriChaMidl": 244, "PriChaHigh": 224 }, "geometry": { "type": "Point", "coordinates": [ -111.943987171499998, 40.712249501899997 ] } },
{ "type": "Feature", "properties": { "SchoolName": "Wallace Stegner Academy", "Enrol_Elem": 574, "Enrol_Midl": 129, "Enrol_High": 0, "PublicElem": 0, "PublicMidl": 0, "PublicHigh": 0, "PriChaElem": 574, "PriChaMidl": 129, "PriChaHigh": 0 }, "geometry": { "type": "Point", "coordinates": [ -111.946074389100005, 40.747892835 ] } },
{ "type": "Feature", "properties": { "SchoolName": "Wasatch Waldorf Charter School", "Enrol_Elem": 528, "Enrol_Midl": 113, "Enrol_High": 0, "PublicElem": 0, "PublicMidl": 0, "PublicHigh": 0, "PriChaElem": 528, "PriChaMidl": 113, "PriChaHigh": 0 }, "geometry": { "type": "Point", "coordinates": [ -111.849978551600003, 40.666463878099997 ] } },
{ "type": "Feature", "properties": { "SchoolName": "Burch Creek School", "Enrol_Elem": 605, "Enrol_Midl": 0, "Enrol_High": 0, "PublicElem": 605, "PublicMidl": 0, "PublicHigh": 0, "PriChaElem": 0, "PriChaMidl": 0, "PriChaHigh": 0 }, "geometry": { "type": "Point", "coordinates": [ -111.962025672099998, 41.183329817500002 ] } },
{ "type": "Feature", "properties": { "SchoolName": "Weber Innovation High School", "Enrol_Elem": 0, "Enrol_Midl": 0, "Enrol_High": 235, "PublicElem": 0, "PublicMidl": 0, "PublicHigh": 235, "PriChaElem": 0, "PriChaMidl": 0, "PriChaHigh": 0 }, "geometry": { "type": "Point", "coordinates": [ -112.004113145399998, 41.243723752400001 ] } },
{ "type": "Feature", "properties": { "SchoolName": "Eastwood School", "Enrol_Elem": 295, "Enrol_Midl": 0, "Enrol_High": 0, "PublicElem": 295, "PublicMidl": 0, "PublicHigh": 0, "PriChaElem": 0, "PriChaMidl": 0, "PriChaHigh": 0 }, "geometry": { "type": "Point", "coordinates": [ -111.793578881100004, 40.6995443749 ] } },
{ "type": "Feature", "properties": { "SchoolName": "Mountain High", "Enrol_Elem": 0, "Enrol_Midl": 0, "Enrol_High": 169, "PublicElem": 0, "PublicMidl": 0, "PublicHigh": 169, "PriChaElem": 0, "PriChaMidl": 0, "PriChaHigh": 0 }, "geometry": { "type": "Point", "coordinates": [ -111.927902501299997, 41.028499068 ] } },
{ "type": "Feature", "properties": { "SchoolName": "Robert Frost School", "Enrol_Elem": 378, "Enrol_Midl": 0, "Enrol_High": 0, "PublicElem": 378, "PublicMidl": 0, "PublicHigh": 0, "PriChaElem": 0, "PriChaMidl": 0, "PriChaHigh": 0 }, "geometry": { "type": "Point", "coordinates": [ -111.974038400400005, 40.675654047199998 ] } },
{ "type": "Feature", "properties": { "SchoolName": "Tabiona High", "Enrol_Elem": 0, "Enrol_Midl": 39, "Enrol_High": 46, "PublicElem": 0, "PublicMidl": 39, "PublicHigh": 46, "PriChaElem": 0, "PriChaMidl": 0, "PriChaHigh": 0 }, "geometry": { "type": "Point", "coordinates": [ -110.707997070199994, 40.3533918949 ] } },
{ "type": "Feature", "properties": { "SchoolName": "Granger School", "Enrol_Elem": 840, "Enrol_Midl": 0, "Enrol_High": 0, "PublicElem": 840, "PublicMidl": 0, "PublicHigh": 0, "PriChaElem": 0, "PriChaMidl": 0, "PriChaHigh": 0 }, "geometry": { "type": "Point", "coordinates": [ -111.944880739200002, 40.6920032871 ] } },
{ "type": "Feature", "properties": { "SchoolName": "Hillside School", "Enrol_Elem": 590, "Enrol_Midl": 0, "Enrol_High": 0, "PublicElem": 590, "PublicMidl": 0, "PublicHigh": 0, "PriChaElem": 0, "PriChaMidl": 0, "PriChaHigh": 0 }, "geometry": { "type": "Point", "coordinates": [ -112.033286819099999, 40.678447805 ] } },
{ "type": "Feature", "properties": { "SchoolName": "San Rafael Middle School", "Enrol_Elem": 0, "Enrol_Midl": 254, "Enrol_High": 0, "PublicElem": 0, "PublicMidl": 254, "PublicHigh": 0, "PriChaElem": 0, "PriChaMidl": 0, "PriChaHigh": 0 }, "geometry": { "type": "Point", "coordinates": [ -111.140082593200006, 39.081478675600003 ] } },
{ "type": "Feature", "properties": { "SchoolName": "Green River High", "Enrol_Elem": 0, "Enrol_Midl": 39, "Enrol_High": 48, "PublicElem": 0, "PublicMidl": 39, "PublicHigh": 48, "PriChaElem": 0, "PriChaMidl": 0, "PriChaHigh": 0 }, "geometry": { "type": "Point", "coordinates": [ -110.172564336199997, 38.9998952308 ] } },
{ "type": "Feature", "properties": { "SchoolName": "Hillsdale School", "Enrol_Elem": 701, "Enrol_Midl": 0, "Enrol_High": 0, "PublicElem": 701, "PublicMidl": 0, "PublicHigh": 0, "PriChaElem": 0, "PriChaMidl": 0, "PriChaHigh": 0 }, "geometry": { "type": "Point", "coordinates": [ -111.969539530600002, 40.703154420899999 ] } },
{ "type": "Feature", "properties": { "SchoolName": "Emery High", "Enrol_Elem": 0, "Enrol_Midl": 0, "Enrol_High": 629, "PublicElem": 0, "PublicMidl": 0, "PublicHigh": 629, "PriChaElem": 0, "PriChaMidl": 0, "PriChaHigh": 0 }, "geometry": { "type": "Point", "coordinates": [ -111.020599035499998, 39.227765852099999 ] } },
{ "type": "Feature", "properties": { "SchoolName": "Castle Dale School", "Enrol_Elem": 165, "Enrol_Midl": 0, "Enrol_High": 0, "PublicElem": 165, "PublicMidl": 0, "PublicHigh": 0, "PriChaElem": 0, "PriChaMidl": 0, "PriChaHigh": 0 }, "geometry": { "type": "Point", "coordinates": [ -111.016343251600006, 39.221204348699999 ] } },
{ "type": "Feature", "properties": { "SchoolName": "Mill Creek School", "Enrol_Elem": 398, "Enrol_Midl": 0, "Enrol_High": 0, "PublicElem": 398, "PublicMidl": 0, "PublicHigh": 0, "PriChaElem": 0, "PriChaMidl": 0, "PriChaHigh": 0 }, "geometry": { "type": "Point", "coordinates": [ -111.858484184299996, 40.689340784800002 ] } },
{ "type": "Feature", "properties": { "SchoolName": "Antimony School", "Enrol_Elem": 8, "Enrol_Midl": 0, "Enrol_High": 0, "PublicElem": 8, "PublicMidl": 0, "PublicHigh": 0, "PriChaElem": 0, "PriChaMidl": 0, "PriChaHigh": 0 }, "geometry": { "type": "Point", "coordinates": [ -112.000113818800003, 38.117354835299999 ] } },
{ "type": "Feature", "properties": { "SchoolName": "Boulder School", "Enrol_Elem": 12, "Enrol_Midl": 0, "Enrol_High": 0, "PublicElem": 12, "PublicMidl": 0, "PublicHigh": 0, "PriChaElem": 0, "PriChaMidl": 0, "PriChaHigh": 0 }, "geometry": { "type": "Point", "coordinates": [ -111.4211062089, 37.907920010600002 ] } },
{ "type": "Feature", "properties": { "SchoolName": "Cleveland School", "Enrol_Elem": 122, "Enrol_Midl": 0, "Enrol_High": 0, "PublicElem": 122, "PublicMidl": 0, "PublicHigh": 0, "PriChaElem": 0, "PriChaMidl": 0, "PriChaHigh": 0 }, "geometry": { "type": "Point", "coordinates": [ -110.854471941599996, 39.3482387225 ] } },
{ "type": "Feature", "properties": { "SchoolName": "Ferron School", "Enrol_Elem": 196, "Enrol_Midl": 0, "Enrol_High": 0, "PublicElem": 196, "PublicMidl": 0, "PublicHigh": 0, "PriChaElem": 0, "PriChaMidl": 0, "PriChaHigh": 0 }, "geometry": { "type": "Point", "coordinates": [ -111.135111353300005, 39.0913311005 ] } },
{ "type": "Feature", "properties": { "SchoolName": "Monroe School", "Enrol_Elem": 608, "Enrol_Midl": 0, "Enrol_High": 0, "PublicElem": 608, "PublicMidl": 0, "PublicHigh": 0, "PriChaElem": 0, "PriChaMidl": 0, "PriChaHigh": 0 }, "geometry": { "type": "Point", "coordinates": [ -111.997163588800007, 40.704717196399997 ] } },
{ "type": "Feature", "properties": { "SchoolName": "Morningside School", "Enrol_Elem": 563, "Enrol_Midl": 0, "Enrol_High": 0, "PublicElem": 563, "PublicMidl": 0, "PublicHigh": 0, "PriChaElem": 0, "PriChaMidl": 0, "PriChaHigh": 0 }, "geometry": { "type": "Point", "coordinates": [ -111.807298609699998, 40.680904162600001 ] } },
{ "type": "Feature", "properties": { "SchoolName": "Bryce Valley School", "Enrol_Elem": 137, "Enrol_Midl": 0, "Enrol_High": 0, "PublicElem": 137, "PublicMidl": 0, "PublicHigh": 0, "PriChaElem": 0, "PriChaMidl": 0, "PriChaHigh": 0 }, "geometry": { "type": "Point", "coordinates": [ -112.092214037100007, 37.623859498599998 ] } },
{ "type": "Feature", "properties": { "SchoolName": "Escalante School", "Enrol_Elem": 79, "Enrol_Midl": 0, "Enrol_High": 0, "PublicElem": 79, "PublicMidl": 0, "PublicHigh": 0, "PriChaElem": 0, "PriChaMidl": 0, "PriChaHigh": 0 }, "geometry": { "type": "Point", "coordinates": [ -111.593761476799997, 37.770304975 ] } },
{ "type": "Feature", "properties": { "SchoolName": "Book Cliff School", "Enrol_Elem": 93, "Enrol_Midl": 0, "Enrol_High": 0, "PublicElem": 93, "PublicMidl": 0, "PublicHigh": 0, "PriChaElem": 0, "PriChaMidl": 0, "PriChaHigh": 0 }, "geometry": { "type": "Point", "coordinates": [ -110.1590810963, 38.992543940499999 ] } },
{ "type": "Feature", "properties": { "SchoolName": "Huntington School", "Enrol_Elem": 233, "Enrol_Midl": 0, "Enrol_High": 0, "PublicElem": 233, "PublicMidl": 0, "PublicHigh": 0, "PriChaElem": 0, "PriChaMidl": 0, "PriChaHigh": 0 }, "geometry": { "type": "Point", "coordinates": [ -110.963118771699996, 39.327689053199997 ] } },
{ "type": "Feature", "properties": { "SchoolName": "Oakridge School", "Enrol_Elem": 397, "Enrol_Midl": 0, "Enrol_High": 0, "PublicElem": 397, "PublicMidl": 0, "PublicHigh": 0, "PriChaElem": 0, "PriChaMidl": 0, "PriChaHigh": 0 }, "geometry": { "type": "Point", "coordinates": [ -111.789297623600007, 40.6774828414 ] } },
{ "type": "Feature", "properties": { "SchoolName": "Oakwood School", "Enrol_Elem": 447, "Enrol_Midl": 0, "Enrol_High": 0, "PublicElem": 447, "PublicMidl": 0, "PublicHigh": 0, "PriChaElem": 0, "PriChaMidl": 0, "PriChaHigh": 0 }, "geometry": { "type": "Point", "coordinates": [ -111.833624799099994, 40.645228212900001 ] } },
{ "type": "Feature", "properties": { "SchoolName": "Panguitch School", "Enrol_Elem": 213, "Enrol_Midl": 0, "Enrol_High": 0, "PublicElem": 213, "PublicMidl": 0, "PublicHigh": 0, "PriChaElem": 0, "PriChaMidl": 0, "PriChaHigh": 0 }, "geometry": { "type": "Point", "coordinates": [ -112.438187256399999, 37.820726802599999 ] } },
{ "type": "Feature", "properties": { "SchoolName": "Panguitch Middle", "Enrol_Elem": 0, "Enrol_Midl": 85, "Enrol_High": 0, "PublicElem": 0, "PublicMidl": 85, "PublicHigh": 0, "PriChaElem": 0, "PriChaMidl": 0, "PriChaHigh": 0 }, "geometry": { "type": "Point", "coordinates": [ -112.427488846900005, 37.821819499500002 ] } },
{ "type": "Feature", "properties": { "SchoolName": "Cottonwood School", "Enrol_Elem": 130, "Enrol_Midl": 0, "Enrol_High": 0, "PublicElem": 130, "PublicMidl": 0, "PublicHigh": 0, "PriChaElem": 0, "PriChaMidl": 0, "PriChaHigh": 0 }, "geometry": { "type": "Point", "coordinates": [ -111.052029155900001, 39.225284876400003 ] } },
{ "type": "Feature", "properties": { "SchoolName": "Douglas T. Orchard School", "Enrol_Elem": 536, "Enrol_Midl": 0, "Enrol_High": 0, "PublicElem": 536, "PublicMidl": 0, "PublicHigh": 0, "PriChaElem": 0, "PriChaMidl": 0, "PriChaHigh": 0 }, "geometry": { "type": "Point", "coordinates": [ -112.052427765499999, 40.6899733451 ] } },
{ "type": "Feature", "properties": { "SchoolName": "Bryce Valley High", "Enrol_Elem": 0, "Enrol_Midl": 78, "Enrol_High": 65, "PublicElem": 0, "PublicMidl": 78, "PublicHigh": 65, "PriChaElem": 0, "PriChaMidl": 0, "PriChaHigh": 0 }, "geometry": { "type": "Point", "coordinates": [ -112.094352874600006, 37.624592269200001 ] } },
{ "type": "Feature", "properties": { "SchoolName": "Escalante High", "Enrol_Elem": 0, "Enrol_Midl": 38, "Enrol_High": 29, "PublicElem": 0, "PublicMidl": 38, "PublicHigh": 29, "PriChaElem": 0, "PriChaMidl": 0, "PriChaHigh": 0 }, "geometry": { "type": "Point", "coordinates": [ -111.586613297300005, 37.7660622394 ] } },
{ "type": "Feature", "properties": { "SchoolName": "Pioneer School", "Enrol_Elem": 555, "Enrol_Midl": 0, "Enrol_High": 0, "PublicElem": 555, "PublicMidl": 0, "PublicHigh": 0, "PriChaElem": 0, "PriChaMidl": 0, "PriChaHigh": 0 }, "geometry": { "type": "Point", "coordinates": [ -111.972602653600006, 40.687831285100003 ] } },
{ "type": "Feature", "properties": { "SchoolName": "West Kearns School", "Enrol_Elem": 724, "Enrol_Midl": 0, "Enrol_High": 0, "PublicElem": 724, "PublicMidl": 0, "PublicHigh": 0, "PriChaElem": 0, "PriChaMidl": 0, "PriChaHigh": 0 }, "geometry": { "type": "Point", "coordinates": [ -112.002165782, 40.662905847099999 ] } },
{ "type": "Feature", "properties": { "SchoolName": "Panguitch High", "Enrol_Elem": 0, "Enrol_Midl": 0, "Enrol_High": 155, "PublicElem": 0, "PublicMidl": 0, "PublicHigh": 155, "PriChaElem": 0, "PriChaMidl": 0, "PriChaHigh": 0 }, "geometry": { "type": "Point", "coordinates": [ -112.4287212654, 37.8216855903 ] } },
{ "type": "Feature", "properties": { "SchoolName": "Philo T. Farnsworth School", "Enrol_Elem": 550, "Enrol_Midl": 0, "Enrol_High": 0, "PublicElem": 550, "PublicMidl": 0, "PublicHigh": 0, "PriChaElem": 0, "PriChaMidl": 0, "PriChaHigh": 0 }, "geometry": { "type": "Point", "coordinates": [ -111.991011367, 40.690480880199999 ] } },
{ "type": "Feature", "properties": { "SchoolName": "Grand County Middle", "Enrol_Elem": 0, "Enrol_Midl": 239, "Enrol_High": 0, "PublicElem": 0, "PublicMidl": 239, "PublicHigh": 0, "PriChaElem": 0, "PriChaMidl": 0, "PriChaHigh": 0 }, "geometry": { "type": "Point", "coordinates": [ -109.547760659, 38.566527072 ] } },
{ "type": "Feature", "properties": { "SchoolName": "Grand County High", "Enrol_Elem": 0, "Enrol_Midl": 0, "Enrol_High": 486, "PublicElem": 0, "PublicMidl": 0, "PublicHigh": 486, "PriChaElem": 0, "PriChaMidl": 0, "PriChaHigh": 0 }, "geometry": { "type": "Point", "coordinates": [ -109.545433694500005, 38.565083568799999 ] } },
{ "type": "Feature", "properties": { "SchoolName": "Westbrook School", "Enrol_Elem": 483, "Enrol_Midl": 0, "Enrol_High": 0, "PublicElem": 483, "PublicMidl": 0, "PublicHigh": 0, "PriChaElem": 0, "PriChaMidl": 0, "PriChaHigh": 0 }, "geometry": { "type": "Point", "coordinates": [ -111.972876903, 40.6376593476 ] } },
{ "type": "Feature", "properties": { "SchoolName": "Whittier School", "Enrol_Elem": 495, "Enrol_Midl": 0, "Enrol_High": 0, "PublicElem": 495, "PublicMidl": 0, "PublicHigh": 0, "PriChaElem": 0, "PriChaMidl": 0, "PriChaHigh": 0 }, "geometry": { "type": "Point", "coordinates": [ -112.033544492800004, 40.695050881 ] } },
{ "type": "Feature", "properties": { "SchoolName": "Plymouth School", "Enrol_Elem": 697, "Enrol_Midl": 0, "Enrol_High": 0, "PublicElem": 697, "PublicMidl": 0, "PublicHigh": 0, "PriChaElem": 0, "PriChaMidl": 0, "PriChaHigh": 0 }, "geometry": { "type": "Point", "coordinates": [ -111.932147520699999, 40.656472871200002 ] } },
{ "type": "Feature", "properties": { "SchoolName": "Pleasant Green School", "Enrol_Elem": 448, "Enrol_Midl": 0, "Enrol_High": 0, "PublicElem": 448, "PublicMidl": 0, "PublicHigh": 0, "PriChaElem": 0, "PriChaMidl": 0, "PriChaHigh": 0 }, "geometry": { "type": "Point", "coordinates": [ -112.086512953699994, 40.7091906263 ] } },
{ "type": "Feature", "properties": { "SchoolName": "William Penn School", "Enrol_Elem": 654, "Enrol_Midl": 0, "Enrol_High": 0, "PublicElem": 654, "PublicMidl": 0, "PublicHigh": 0, "PriChaElem": 0, "PriChaMidl": 0, "PriChaHigh": 0 }, "geometry": { "type": "Point", "coordinates": [ -111.844464565699994, 40.690831508099997 ] } },
{ "type": "Feature", "properties": { "SchoolName": "Woodrow Wilson School", "Enrol_Elem": 510, "Enrol_Midl": 0, "Enrol_High": 0, "PublicElem": 510, "PublicMidl": 0, "PublicHigh": 0, "PriChaElem": 0, "PriChaMidl": 0, "PriChaHigh": 0 }, "geometry": { "type": "Point", "coordinates": [ -111.88998245, 40.714949746899997 ] } },
{ "type": "Feature", "properties": { "SchoolName": "Redwood School", "Enrol_Elem": 569, "Enrol_Midl": 0, "Enrol_High": 0, "PublicElem": 569, "PublicMidl": 0, "PublicHigh": 0, "PriChaElem": 0, "PriChaMidl": 0, "PriChaHigh": 0 }, "geometry": { "type": "Point", "coordinates": [ -111.939603728, 40.713461777600003 ] } },
{ "type": "Feature", "properties": { "SchoolName": "Rolling Meadows School", "Enrol_Elem": 571, "Enrol_Midl": 0, "Enrol_High": 0, "PublicElem": 571, "PublicMidl": 0, "PublicHigh": 0, "PriChaElem": 0, "PriChaMidl": 0, "PriChaHigh": 0 }, "geometry": { "type": "Point", "coordinates": [ -111.961802498200001, 40.685278664499997 ] } },
{ "type": "Feature", "properties": { "SchoolName": "Roosevelt School", "Enrol_Elem": 324, "Enrol_Midl": 0, "Enrol_High": 0, "PublicElem": 324, "PublicMidl": 0, "PublicHigh": 0, "PriChaElem": 0, "PriChaMidl": 0, "PriChaHigh": 0 }, "geometry": { "type": "Point", "coordinates": [ -111.867625412799995, 40.701203383799999 ] } },
{ "type": "Feature", "properties": { "SchoolName": "Academy Park School", "Enrol_Elem": 458, "Enrol_Midl": 0, "Enrol_High": 0, "PublicElem": 458, "PublicMidl": 0, "PublicHigh": 0, "PriChaElem": 0, "PriChaMidl": 0, "PriChaHigh": 0 }, "geometry": { "type": "Point", "coordinates": [ -111.999976815, 40.670085724700002 ] } },
{ "type": "Feature", "properties": { "SchoolName": "Rosecrest School", "Enrol_Elem": 406, "Enrol_Midl": 0, "Enrol_High": 0, "PublicElem": 406, "PublicMidl": 0, "PublicHigh": 0, "PriChaElem": 0, "PriChaMidl": 0, "PriChaHigh": 0 }, "geometry": { "type": "Point", "coordinates": [ -111.820911955300005, 40.706288035500002 ] } },
{ "type": "Feature", "properties": { "SchoolName": "Harry S. Truman School", "Enrol_Elem": 369, "Enrol_Midl": 0, "Enrol_High": 0, "PublicElem": 369, "PublicMidl": 0, "PublicHigh": 0, "PriChaElem": 0, "PriChaMidl": 0, "PriChaHigh": 0 }, "geometry": { "type": "Point", "coordinates": [ -111.965488917399995, 40.6692946509 ] } },
{ "type": "Feature", "properties": { "SchoolName": "Arcadia School", "Enrol_Elem": 520, "Enrol_Midl": 0, "Enrol_High": 0, "PublicElem": 520, "PublicMidl": 0, "PublicHigh": 0, "PriChaElem": 0, "PriChaMidl": 0, "PriChaHigh": 0 }, "geometry": { "type": "Point", "coordinates": [ -111.973383804299999, 40.663106140099998 ] } },
{ "type": "Feature", "properties": { "SchoolName": "Thomas W. Bacchus School", "Enrol_Elem": 428, "Enrol_Midl": 0, "Enrol_High": 0, "PublicElem": 428, "PublicMidl": 0, "PublicHigh": 0, "PriChaElem": 0, "PriChaMidl": 0, "PriChaHigh": 0 }, "geometry": { "type": "Point", "coordinates": [ -112.032726370099994, 40.6434248849 ] } },
{ "type": "Feature", "properties": { "SchoolName": "Churchill Jr High", "Enrol_Elem": 0, "Enrol_Midl": 603, "Enrol_High": 0, "PublicElem": 0, "PublicMidl": 603, "PublicHigh": 0, "PriChaElem": 0, "PriChaMidl": 0, "PriChaHigh": 0 }, "geometry": { "type": "Point", "coordinates": [ -111.797388785300001, 40.677775876399998 ] } },
{ "type": "Feature", "properties": { "SchoolName": "Eisenhower Jr High", "Enrol_Elem": 0, "Enrol_Midl": 1218, "Enrol_High": 0, "PublicElem": 0, "PublicMidl": 1218, "PublicHigh": 0, "PriChaElem": 0, "PriChaMidl": 0, "PriChaHigh": 0 }, "geometry": { "type": "Point", "coordinates": [ -111.937457372500006, 40.6750479134 ] } },
{ "type": "Feature", "properties": { "SchoolName": "Jim Bridger School", "Enrol_Elem": 467, "Enrol_Midl": 0, "Enrol_High": 0, "PublicElem": 467, "PublicMidl": 0, "PublicHigh": 0, "PriChaElem": 0, "PriChaMidl": 0, "PriChaHigh": 0 }, "geometry": { "type": "Point", "coordinates": [ -112.020341984500007, 40.635453381700003 ] } },
{ "type": "Feature", "properties": { "SchoolName": "Bennion School", "Enrol_Elem": 541, "Enrol_Midl": 0, "Enrol_High": 0, "PublicElem": 541, "PublicMidl": 0, "PublicHigh": 0, "PriChaElem": 0, "PriChaMidl": 0, "PriChaHigh": 0 }, "geometry": { "type": "Point", "coordinates": [ -111.961389905600001, 40.646753350399997 ] } },
{ "type": "Feature", "properties": { "SchoolName": "Evergreen Jr High", "Enrol_Elem": 0, "Enrol_Midl": 726, "Enrol_High": 0, "PublicElem": 0, "PublicMidl": 726, "PublicHigh": 0, "PriChaElem": 0, "PriChaMidl": 0, "PriChaHigh": 0 }, "geometry": { "type": "Point", "coordinates": [ -111.833189669500001, 40.697606802400003 ] } },
{ "type": "Feature", "properties": { "SchoolName": "Granite Park Jr High", "Enrol_Elem": 0, "Enrol_Midl": 589, "Enrol_High": 0, "PublicElem": 0, "PublicMidl": 589, "PublicHigh": 0, "PriChaElem": 0, "PriChaMidl": 0, "PriChaHigh": 0 }, "geometry": { "type": "Point", "coordinates": [ -111.884696178900001, 40.7047520068 ] } },
{ "type": "Feature", "properties": { "SchoolName": "Beehive School", "Enrol_Elem": 574, "Enrol_Midl": 0, "Enrol_High": 0, "PublicElem": 574, "PublicMidl": 0, "PublicHigh": 0, "PriChaElem": 0, "PriChaMidl": 0, "PriChaHigh": 0 }, "geometry": { "type": "Point", "coordinates": [ -112.014022713700001, 40.648588609900003 ] } },
{ "type": "Feature", "properties": { "SchoolName": "Cottonwood High", "Enrol_Elem": 0, "Enrol_Midl": 0, "Enrol_High": 1711, "PublicElem": 0, "PublicMidl": 0, "PublicHigh": 1711, "PriChaElem": 0, "PriChaMidl": 0, "PriChaHigh": 0 }, "geometry": { "type": "Point", "coordinates": [ -111.853381886400001, 40.646597366800002 ] } },
{ "type": "Feature", "properties": { "SchoolName": "Hunter Jr High", "Enrol_Elem": 0, "Enrol_Midl": 816, "Enrol_High": 0, "PublicElem": 0, "PublicMidl": 816, "PublicHigh": 0, "PriChaElem": 0, "PriChaMidl": 0, "PriChaHigh": 0 }, "geometry": { "type": "Point", "coordinates": [ -112.037495187299996, 40.688713997500003 ] } },
{ "type": "Feature", "properties": { "SchoolName": "Thomas Jefferson Jr High", "Enrol_Elem": 0, "Enrol_Midl": 710, "Enrol_High": 0, "PublicElem": 0, "PublicMidl": 710, "PublicHigh": 0, "PriChaElem": 0, "PriChaMidl": 0, "PriChaHigh": 0 }, "geometry": { "type": "Point", "coordinates": [ -112.025669829500004, 40.644763395299996 ] } },
{ "type": "Feature", "properties": { "SchoolName": "Copper Hills School", "Enrol_Elem": 492, "Enrol_Midl": 0, "Enrol_High": 0, "PublicElem": 492, "PublicMidl": 0, "PublicHigh": 0, "PriChaElem": 0, "PriChaMidl": 0, "PriChaHigh": 0 }, "geometry": { "type": "Point", "coordinates": [ -112.073479041200002, 40.690902866800002 ] } },
{ "type": "Feature", "properties": { "SchoolName": "Cyprus High", "Enrol_Elem": 0, "Enrol_Midl": 0, "Enrol_High": 2581, "PublicElem": 0, "PublicMidl": 0, "PublicHigh": 2581, "PriChaElem": 0, "PriChaMidl": 0, "PriChaHigh": 0 }, "geometry": { "type": "Point", "coordinates": [ -112.097968793, 40.705228410899998 ] } },
{ "type": "Feature", "properties": { "SchoolName": "Granger High", "Enrol_Elem": 0, "Enrol_Midl": 0, "Enrol_High": 3170, "PublicElem": 0, "PublicMidl": 0, "PublicHigh": 3170, "PriChaElem": 0, "PriChaMidl": 0, "PriChaHigh": 0 }, "geometry": { "type": "Point", "coordinates": [ -111.977904027099996, 40.692413279 ] } },
{ "type": "Feature", "properties": { "SchoolName": "Kearns Jr High", "Enrol_Elem": 0, "Enrol_Midl": 565, "Enrol_High": 0, "PublicElem": 0, "PublicMidl": 565, "PublicHigh": 0, "PriChaElem": 0, "PriChaMidl": 0, "PriChaHigh": 0 }, "geometry": { "type": "Point", "coordinates": [ -111.987729124200001, 40.655778355199999 ] } },
{ "type": "Feature", "properties": { "SchoolName": "John F. Kennedy Jr High", "Enrol_Elem": 0, "Enrol_Midl": 693, "Enrol_High": 0, "PublicElem": 0, "PublicMidl": 693, "PublicHigh": 0, "PriChaElem": 0, "PriChaMidl": 0, "PriChaHigh": 0 }, "geometry": { "type": "Point", "coordinates": [ -112.004203881500004, 40.672670522099999 ] } },
{ "type": "Feature", "properties": { "SchoolName": "Cottonwood School", "Enrol_Elem": 512, "Enrol_Midl": 0, "Enrol_High": 0, "PublicElem": 512, "PublicMidl": 0, "PublicHigh": 0, "PriChaElem": 0, "PriChaMidl": 0, "PriChaHigh": 0 }, "geometry": { "type": "Point", "coordinates": [ -111.815703923, 40.656542528800003 ] } },
{ "type": "Feature", "properties": { "SchoolName": "Hunter School", "Enrol_Elem": 501, "Enrol_Midl": 0, "Enrol_High": 0, "PublicElem": 501, "PublicMidl": 0, "PublicHigh": 0, "PriChaElem": 0, "PriChaMidl": 0, "PriChaHigh": 0 }, "geometry": { "type": "Point", "coordinates": [ -112.018423150700002, 40.6760818164 ] } },
{ "type": "Feature", "properties": { "SchoolName": "Calvin S. Smith School", "Enrol_Elem": 748, "Enrol_Midl": 0, "Enrol_High": 0, "PublicElem": 748, "PublicMidl": 0, "PublicHigh": 0, "PriChaElem": 0, "PriChaMidl": 0, "PriChaHigh": 0 }, "geometry": { "type": "Point", "coordinates": [ -111.947520909399998, 40.639616960399998 ] } },
{ "type": "Feature", "properties": { "SchoolName": "Alta View School", "Enrol_Elem": 644, "Enrol_Midl": 0, "Enrol_High": 0, "PublicElem": 644, "PublicMidl": 0, "PublicHigh": 0, "PriChaElem": 0, "PriChaMidl": 0, "PriChaHigh": 0 }, "geometry": { "type": "Point", "coordinates": [ -111.864589970400004, 40.563553413699999 ] } },
{ "type": "Feature", "properties": { "SchoolName": "Upland Terrace School", "Enrol_Elem": 470, "Enrol_Midl": 0, "Enrol_High": 0, "PublicElem": 470, "PublicMidl": 0, "PublicHigh": 0, "PriChaElem": 0, "PriChaMidl": 0, "PriChaHigh": 0 }, "geometry": { "type": "Point", "coordinates": [ -111.811878957600001, 40.690238279799999 ] } },
{ "type": "Feature", "properties": { "SchoolName": "South Kearns School", "Enrol_Elem": 346, "Enrol_Midl": 0, "Enrol_High": 0, "PublicElem": 346, "PublicMidl": 0, "PublicHigh": 0, "PriChaElem": 0, "PriChaMidl": 0, "PriChaHigh": 0 }, "geometry": { "type": "Point", "coordinates": [ -111.996856501600007, 40.650274049499998 ] } },
{ "type": "Feature", "properties": { "SchoolName": "Bell View School", "Enrol_Elem": 310, "Enrol_Midl": 0, "Enrol_High": 0, "PublicElem": 310, "PublicMidl": 0, "PublicHigh": 0, "PriChaElem": 0, "PriChaMidl": 0, "PriChaHigh": 0 }, "geometry": { "type": "Point", "coordinates": [ -111.868616919299996, 40.573898316399998 ] } },
{ "type": "Feature", "properties": { "SchoolName": "Stansbury School", "Enrol_Elem": 848, "Enrol_Midl": 0, "Enrol_High": 0, "PublicElem": 848, "PublicMidl": 0, "PublicHigh": 0, "PriChaElem": 0, "PriChaMidl": 0, "PriChaHigh": 0 }, "geometry": { "type": "Point", "coordinates": [ -111.958881697099997, 40.705507643499999 ] } },
{ "type": "Feature", "properties": { "SchoolName": "Bella Vista School", "Enrol_Elem": 254, "Enrol_Midl": 0, "Enrol_High": 0, "PublicElem": 254, "PublicMidl": 0, "PublicHigh": 0, "PriChaElem": 0, "PriChaMidl": 0, "PriChaHigh": 0 }, "geometry": { "type": "Point", "coordinates": [ -111.829817816200006, 40.625181016399999 ] } },
{ "type": "Feature", "properties": { "SchoolName": "Twin Peaks School", "Enrol_Elem": 329, "Enrol_Midl": 0, "Enrol_High": 0, "PublicElem": 329, "PublicMidl": 0, "PublicHigh": 0, "PriChaElem": 0, "PriChaMidl": 0, "PriChaHigh": 0 }, "geometry": { "type": "Point", "coordinates": [ -111.861137407900003, 40.654752328400001 ] } },
{ "type": "Feature", "properties": { "SchoolName": "Vista School", "Enrol_Elem": 606, "Enrol_Midl": 0, "Enrol_High": 0, "PublicElem": 606, "PublicMidl": 0, "PublicHigh": 0, "PriChaElem": 0, "PriChaMidl": 0, "PriChaHigh": 0 }, "geometry": { "type": "Point", "coordinates": [ -111.947702484900006, 40.662901794 ] } },
{ "type": "Feature", "properties": { "SchoolName": "Brookwood School", "Enrol_Elem": 441, "Enrol_Midl": 0, "Enrol_High": 0, "PublicElem": 441, "PublicMidl": 0, "PublicHigh": 0, "PriChaElem": 0, "PriChaMidl": 0, "PriChaHigh": 0 }, "geometry": { "type": "Point", "coordinates": [ -111.820628784700006, 40.594178346200003 ] } },
{ "type": "Feature", "properties": { "SchoolName": "Western Hills School", "Enrol_Elem": 342, "Enrol_Midl": 0, "Enrol_High": 0, "PublicElem": 342, "PublicMidl": 0, "PublicHigh": 0, "PriChaElem": 0, "PriChaMidl": 0, "PriChaHigh": 0 }, "geometry": { "type": "Point", "coordinates": [ -112.011066080600003, 40.656205157400002 ] } },
{ "type": "Feature", "properties": { "SchoolName": "Valley Crest School", "Enrol_Elem": 570, "Enrol_Midl": 0, "Enrol_High": 0, "PublicElem": 570, "PublicMidl": 0, "PublicHigh": 0, "PriChaElem": 0, "PriChaMidl": 0, "PriChaHigh": 0 }, "geometry": { "type": "Point", "coordinates": [ -112.016454660700006, 40.704690372599998 ] } },
{ "type": "Feature", "properties": { "SchoolName": "East Sandy School", "Enrol_Elem": 447, "Enrol_Midl": 0, "Enrol_High": 0, "PublicElem": 447, "PublicMidl": 0, "PublicHigh": 0, "PriChaElem": 0, "PriChaMidl": 0, "PriChaHigh": 0 }, "geometry": { "type": "Point", "coordinates": [ -111.866191036800004, 40.600428314399998 ] } },
{ "type": "Feature", "properties": { "SchoolName": "Woodstock School", "Enrol_Elem": 496, "Enrol_Midl": 0, "Enrol_High": 0, "PublicElem": 496, "PublicMidl": 0, "PublicHigh": 0, "PriChaElem": 0, "PriChaMidl": 0, "PriChaHigh": 0 }, "geometry": { "type": "Point", "coordinates": [ -111.8539931145, 40.641224867399998 ] } },
{ "type": "Feature", "properties": { "SchoolName": "Bennion Jr High", "Enrol_Elem": 0, "Enrol_Midl": 1129, "Enrol_High": 0, "PublicElem": 0, "PublicMidl": 1129, "PublicHigh": 0, "PriChaElem": 0, "PriChaMidl": 0, "PriChaHigh": 0 }, "geometry": { "type": "Point", "coordinates": [ -111.956641585300005, 40.641225469299997 ] } },
{ "type": "Feature", "properties": { "SchoolName": "Edgemont School", "Enrol_Elem": 369, "Enrol_Midl": 0, "Enrol_High": 0, "PublicElem": 369, "PublicMidl": 0, "PublicHigh": 0, "PriChaElem": 0, "PriChaMidl": 0, "PriChaHigh": 0 }, "geometry": { "type": "Point", "coordinates": [ -111.860135691099998, 40.574017634199997 ] } },
{ "type": "Feature", "properties": { "SchoolName": "Elk Meadows School", "Enrol_Elem": 777, "Enrol_Midl": 0, "Enrol_High": 0, "PublicElem": 777, "PublicMidl": 0, "PublicHigh": 0, "PriChaElem": 0, "PriChaMidl": 0, "PriChaHigh": 0 }, "geometry": { "type": "Point", "coordinates": [ -111.973141345499997, 40.574150598400003 ] } },
{ "type": "Feature", "properties": { "SchoolName": "Cedar East School", "Enrol_Elem": 528, "Enrol_Midl": 0, "Enrol_High": 0, "PublicElem": 528, "PublicMidl": 0, "PublicHigh": 0, "PriChaElem": 0, "PriChaMidl": 0, "PriChaHigh": 0 }, "geometry": { "type": "Point", "coordinates": [ -113.057018740499998, 37.676647666100003 ] } },
{ "type": "Feature", "properties": { "SchoolName": "Cedar North School", "Enrol_Elem": 532, "Enrol_Midl": 0, "Enrol_High": 0, "PublicElem": 532, "PublicMidl": 0, "PublicHigh": 0, "PriChaElem": 0, "PriChaMidl": 0, "PriChaHigh": 0 }, "geometry": { "type": "Point", "coordinates": [ -113.070760247899997, 37.681967434800001 ] } },
{ "type": "Feature", "properties": { "SchoolName": "Bonneville Jr High", "Enrol_Elem": 0, "Enrol_Midl": 620, "Enrol_High": 0, "PublicElem": 0, "PublicMidl": 620, "PublicHigh": 0, "PriChaElem": 0, "PriChaMidl": 0, "PriChaHigh": 0 }, "geometry": { "type": "Point", "coordinates": [ -111.845767616, 40.654502884499998 ] } },
{ "type": "Feature", "properties": { "SchoolName": "Granite School", "Enrol_Elem": 379, "Enrol_Midl": 0, "Enrol_High": 0, "PublicElem": 379, "PublicMidl": 0, "PublicHigh": 0, "PriChaElem": 0, "PriChaMidl": 0, "PriChaHigh": 0 }, "geometry": { "type": "Point", "coordinates": [ -111.807580536, 40.573844769799997 ] } },
{ "type": "Feature", "properties": { "SchoolName": "Cedar South School", "Enrol_Elem": 460, "Enrol_Midl": 0, "Enrol_High": 0, "PublicElem": 460, "PublicMidl": 0, "PublicHigh": 0, "PriChaElem": 0, "PriChaMidl": 0, "PriChaHigh": 0 }, "geometry": { "type": "Point", "coordinates": [ -113.070431529100006, 37.66989907 ] } },
{ "type": "Feature", "properties": { "SchoolName": "Escalante Valley School", "Enrol_Elem": 119, "Enrol_Midl": 0, "Enrol_High": 0, "PublicElem": 119, "PublicMidl": 0, "PublicHigh": 0, "PriChaElem": 0, "PriChaMidl": 0, "PriChaHigh": 0 }, "geometry": { "type": "Point", "coordinates": [ -113.655143560599996, 37.710843373400003 ] } },
{ "type": "Feature", "properties": { "SchoolName": "Valley Jr High", "Enrol_Elem": 0, "Enrol_Midl": 720, "Enrol_High": 0, "PublicElem": 0, "PublicMidl": 720, "PublicHigh": 0, "PriChaElem": 0, "PriChaMidl": 0, "PriChaHigh": 0 }, "geometry": { "type": "Point", "coordinates": [ -111.966340450199993, 40.6798437514 ] } },
{ "type": "Feature", "properties": { "SchoolName": "Wasatch Jr High", "Enrol_Elem": 0, "Enrol_Midl": 840, "Enrol_High": 0, "PublicElem": 0, "PublicMidl": 840, "PublicHigh": 0, "PriChaElem": 0, "PriChaMidl": 0, "PriChaHigh": 0 }, "geometry": { "type": "Point", "coordinates": [ -111.806233264300005, 40.690243612400003 ] } },
{ "type": "Feature", "properties": { "SchoolName": "Heartland School", "Enrol_Elem": 515, "Enrol_Midl": 0, "Enrol_High": 0, "PublicElem": 515, "PublicMidl": 0, "PublicHigh": 0, "PriChaElem": 0, "PriChaMidl": 0, "PriChaHigh": 0 }, "geometry": { "type": "Point", "coordinates": [ -111.933018009799994, 40.623085837200001 ] } },
{ "type": "Feature", "properties": { "SchoolName": "Jordan Ridge School", "Enrol_Elem": 806, "Enrol_Midl": 0, "Enrol_High": 0, "PublicElem": 806, "PublicMidl": 0, "PublicHigh": 0, "PriChaElem": 0, "PriChaMidl": 0, "PriChaHigh": 0 }, "geometry": { "type": "Point", "coordinates": [ -111.956636058, 40.573863256899998 ] } },
{ "type": "Feature", "properties": { "SchoolName": "Midvale Middle", "Enrol_Elem": 0, "Enrol_Midl": 945, "Enrol_High": 0, "PublicElem": 0, "PublicMidl": 945, "PublicHigh": 0, "PriChaElem": 0, "PriChaMidl": 0, "PriChaHigh": 0 }, "geometry": { "type": "Point", "coordinates": [ -111.901016674900006, 40.608129169599998 ] } },
{ "type": "Feature", "properties": { "SchoolName": "West Lake Jr High", "Enrol_Elem": 0, "Enrol_Midl": 918, "Enrol_High": 0, "PublicElem": 0, "PublicMidl": 918, "PublicHigh": 0, "PriChaElem": 0, "PriChaMidl": 0, "PriChaHigh": 0 }, "geometry": { "type": "Point", "coordinates": [ -111.974447476099996, 40.699110613099997 ] } },
{ "type": "Feature", "properties": { "SchoolName": "Jordan Hills School", "Enrol_Elem": 565, "Enrol_Midl": 0, "Enrol_High": 0, "PublicElem": 565, "PublicMidl": 0, "PublicHigh": 0, "PriChaElem": 0, "PriChaMidl": 0, "PriChaHigh": 0 }, "geometry": { "type": "Point", "coordinates": [ -112.0063252944, 40.5899737887 ] } },
{ "type": "Feature", "properties": { "SchoolName": "Oak Hollow School", "Enrol_Elem": 662, "Enrol_Midl": 0, "Enrol_High": 0, "PublicElem": 662, "PublicMidl": 0, "PublicHigh": 0, "PriChaElem": 0, "PriChaMidl": 0, "PriChaHigh": 0 }, "geometry": { "type": "Point", "coordinates": [ -111.867468388099994, 40.493045686400002 ] } },
{ "type": "Feature", "properties": { "SchoolName": "Lone Peak School", "Enrol_Elem": 688, "Enrol_Midl": 0, "Enrol_High": 0, "PublicElem": 688, "PublicMidl": 0, "PublicHigh": 0, "PriChaElem": 0, "PriChaMidl": 0, "PriChaHigh": 0 }, "geometry": { "type": "Point", "coordinates": [ -111.826519309299997, 40.54178638 ] } },
{ "type": "Feature", "properties": { "SchoolName": "Majestic School", "Enrol_Elem": 246, "Enrol_Midl": 0, "Enrol_High": 0, "PublicElem": 246, "PublicMidl": 0, "PublicHigh": 0, "PriChaElem": 0, "PriChaMidl": 0, "PriChaHigh": 0 }, "geometry": { "type": "Point", "coordinates": [ -111.941124321499998, 40.616040519899997 ] } },
{ "type": "Feature", "properties": { "SchoolName": "Midvalley School", "Enrol_Elem": 419, "Enrol_Midl": 0, "Enrol_High": 0, "PublicElem": 419, "PublicMidl": 0, "PublicHigh": 0, "PriChaElem": 0, "PriChaMidl": 0, "PriChaHigh": 0 }, "geometry": { "type": "Point", "coordinates": [ -111.883812595099997, 40.611052094500003 ] } },
{ "type": "Feature", "properties": { "SchoolName": "South Jordan School", "Enrol_Elem": 1045, "Enrol_Midl": 0, "Enrol_High": 0, "PublicElem": 1045, "PublicMidl": 0, "PublicHigh": 0, "PriChaElem": 0, "PriChaMidl": 0, "PriChaHigh": 0 }, "geometry": { "type": "Point", "coordinates": [ -111.932141377099995, 40.547471511600001 ] } },
{ "type": "Feature", "properties": { "SchoolName": "Southland School", "Enrol_Elem": 802, "Enrol_Midl": 0, "Enrol_High": 0, "PublicElem": 802, "PublicMidl": 0, "PublicHigh": 0, "PriChaElem": 0, "PriChaMidl": 0, "PriChaHigh": 0 }, "geometry": { "type": "Point", "coordinates": [ -111.956711268500001, 40.520890271799999 ] } },
{ "type": "Feature", "properties": { "SchoolName": "Monte Vista School", "Enrol_Elem": 900, "Enrol_Midl": 0, "Enrol_High": 0, "PublicElem": 900, "PublicMidl": 0, "PublicHigh": 0, "PriChaElem": 0, "PriChaMidl": 0, "PriChaHigh": 0 }, "geometry": { "type": "Point", "coordinates": [ -111.9567218336, 40.5486101734 ] } },
{ "type": "Feature", "properties": { "SchoolName": "Terra Linda School", "Enrol_Elem": 558, "Enrol_Midl": 0, "Enrol_High": 0, "PublicElem": 558, "PublicMidl": 0, "PublicHigh": 0, "PriChaElem": 0, "PriChaMidl": 0, "PriChaHigh": 0 }, "geometry": { "type": "Point", "coordinates": [ -111.974897034400001, 40.5979160216 ] } },
{ "type": "Feature", "properties": { "SchoolName": "Rose Creek School", "Enrol_Elem": 859, "Enrol_Midl": 0, "Enrol_High": 0, "PublicElem": 859, "PublicMidl": 0, "PublicHigh": 0, "PriChaElem": 0, "PriChaMidl": 0, "PriChaHigh": 0 }, "geometry": { "type": "Point", "coordinates": [ -111.978829455400003, 40.517660048400003 ] } },
{ "type": "Feature", "properties": { "SchoolName": "Oquirrh School", "Enrol_Elem": 616, "Enrol_Midl": 0, "Enrol_High": 0, "PublicElem": 616, "PublicMidl": 0, "PublicHigh": 0, "PriChaElem": 0, "PriChaMidl": 0, "PriChaHigh": 0 }, "geometry": { "type": "Point", "coordinates": [ -111.969636050099993, 40.621103535400003 ] } },
{ "type": "Feature", "properties": { "SchoolName": "Sprucewood School", "Enrol_Elem": 387, "Enrol_Midl": 0, "Enrol_High": 0, "PublicElem": 387, "PublicMidl": 0, "PublicHigh": 0, "PriChaElem": 0, "PriChaMidl": 0, "PriChaHigh": 0 }, "geometry": { "type": "Point", "coordinates": [ -111.861800645700001, 40.532681050199997 ] } },
{ "type": "Feature", "properties": { "SchoolName": "Oakdale School", "Enrol_Elem": 389, "Enrol_Midl": 0, "Enrol_High": 0, "PublicElem": 389, "PublicMidl": 0, "PublicHigh": 0, "PriChaElem": 0, "PriChaMidl": 0, "PriChaHigh": 0 }, "geometry": { "type": "Point", "coordinates": [ -111.836742704100004, 40.6034723438 ] } },
{ "type": "Feature", "properties": { "SchoolName": "Copper Hills High", "Enrol_Elem": 0, "Enrol_Midl": 0, "Enrol_High": 2749, "PublicElem": 0, "PublicMidl": 0, "PublicHigh": 2749, "PriChaElem": 0, "PriChaMidl": 0, "PriChaHigh": 0 }, "geometry": { "type": "Point", "coordinates": [ -112.0194324088, 40.594298314 ] } },
{ "type": "Feature", "properties": { "SchoolName": "Peruvian Park School", "Enrol_Elem": 572, "Enrol_Midl": 0, "Enrol_High": 0, "PublicElem": 572, "PublicMidl": 0, "PublicHigh": 0, "PriChaElem": 0, "PriChaMidl": 0, "PriChaHigh": 0 }, "geometry": { "type": "Point", "coordinates": [ -111.847572167099997, 40.599098926800004 ] } },
{ "type": "Feature", "properties": { "SchoolName": "Enoch School", "Enrol_Elem": 551, "Enrol_Midl": 0, "Enrol_High": 0, "PublicElem": 551, "PublicMidl": 0, "PublicHigh": 0, "PriChaElem": 0, "PriChaMidl": 0, "PriChaHigh": 0 }, "geometry": { "type": "Point", "coordinates": [ -113.030687738799998, 37.763439003499997 ] } },
{ "type": "Feature", "properties": { "SchoolName": "Fiddlers Canyon School", "Enrol_Elem": 540, "Enrol_Midl": 0, "Enrol_High": 0, "PublicElem": 540, "PublicMidl": 0, "PublicHigh": 0, "PriChaElem": 0, "PriChaMidl": 0, "PriChaHigh": 0 }, "geometry": { "type": "Point", "coordinates": [ -113.053821717299996, 37.713075414499997 ] } },
{ "type": "Feature", "properties": { "SchoolName": "Bingham High", "Enrol_Elem": 0, "Enrol_Midl": 0, "Enrol_High": 2477, "PublicElem": 0, "PublicMidl": 0, "PublicHigh": 2477, "PriChaElem": 0, "PriChaMidl": 0, "PriChaHigh": 0 }, "geometry": { "type": "Point", "coordinates": [ -111.946251509899994, 40.563568038299998 ] } },
{ "type": "Feature", "properties": { "SchoolName": "Parowan School", "Enrol_Elem": 406, "Enrol_Midl": 0, "Enrol_High": 0, "PublicElem": 406, "PublicMidl": 0, "PublicHigh": 0, "PriChaElem": 0, "PriChaMidl": 0, "PriChaHigh": 0 }, "geometry": { "type": "Point", "coordinates": [ -112.830829885200004, 37.844794037100002 ] } },
{ "type": "Feature", "properties": { "SchoolName": "Brighton High", "Enrol_Elem": 0, "Enrol_Midl": 0, "Enrol_High": 2126, "PublicElem": 0, "PublicMidl": 0, "PublicHigh": 2126, "PriChaElem": 0, "PriChaMidl": 0, "PriChaHigh": 0 }, "geometry": { "type": "Point", "coordinates": [ -111.826197966699993, 40.612171391799997 ] } },
{ "type": "Feature", "properties": { "SchoolName": "Albion Middle", "Enrol_Elem": 0, "Enrol_Midl": 936, "Enrol_High": 0, "PublicElem": 0, "PublicMidl": 936, "PublicHigh": 0, "PriChaElem": 0, "PriChaMidl": 0, "PriChaHigh": 0 }, "geometry": { "type": "Point", "coordinates": [ -111.8130960859, 40.586772381400003 ] } },
{ "type": "Feature", "properties": { "SchoolName": "Cedar Middle", "Enrol_Elem": 0, "Enrol_Midl": 1135, "Enrol_High": 0, "PublicElem": 0, "PublicMidl": 1135, "PublicHigh": 0, "PriChaElem": 0, "PriChaMidl": 0, "PriChaHigh": 0 }, "geometry": { "type": "Point", "coordinates": [ -113.090857230699996, 37.658637827299998 ] } },
{ "type": "Feature", "properties": { "SchoolName": "Hillcrest High", "Enrol_Elem": 0, "Enrol_Midl": 0, "Enrol_High": 2194, "PublicElem": 0, "PublicMidl": 0, "PublicHigh": 2194, "PriChaElem": 0, "PriChaMidl": 0, "PriChaHigh": 0 }, "geometry": { "type": "Point", "coordinates": [ -111.868647634499993, 40.618183112899999 ] } },
{ "type": "Feature", "properties": { "SchoolName": "Jordan High", "Enrol_Elem": 0, "Enrol_Midl": 0, "Enrol_High": 1996, "PublicElem": 0, "PublicMidl": 0, "PublicHigh": 1996, "PriChaElem": 0, "PriChaMidl": 0, "PriChaHigh": 0 }, "geometry": { "type": "Point", "coordinates": [ -111.888273309900001, 40.574222697300002 ] } },
{ "type": "Feature", "properties": { "SchoolName": "Fillmore School", "Enrol_Elem": 389, "Enrol_Midl": 0, "Enrol_High": 0, "PublicElem": 389, "PublicMidl": 0, "PublicHigh": 0, "PriChaElem": 0, "PriChaMidl": 0, "PriChaHigh": 0 }, "geometry": { "type": "Point", "coordinates": [ -112.33913503, 38.959288005399998 ] } },
{ "type": "Feature", "properties": { "SchoolName": "Eastmont Middle", "Enrol_Elem": 0, "Enrol_Midl": 722, "Enrol_High": 0, "PublicElem": 0, "PublicMidl": 722, "PublicHigh": 0, "PriChaElem": 0, "PriChaMidl": 0, "PriChaHigh": 0 }, "geometry": { "type": "Point", "coordinates": [ -111.854804460300002, 40.566918669 ] } },
{ "type": "Feature", "properties": { "SchoolName": "Cedar City High", "Enrol_Elem": 0, "Enrol_Midl": 0, "Enrol_High": 1303, "PublicElem": 0, "PublicMidl": 0, "PublicHigh": 1303, "PriChaElem": 0, "PriChaMidl": 0, "PriChaHigh": 0 }, "geometry": { "type": "Point", "coordinates": [ -113.072838814700006, 37.665585127900002 ] } },
{ "type": "Feature", "properties": { "SchoolName": "Parowan High", "Enrol_Elem": 0, "Enrol_Midl": 198, "Enrol_High": 181, "PublicElem": 0, "PublicMidl": 198, "PublicHigh": 181, "PriChaElem": 0, "PriChaMidl": 0, "PriChaHigh": 0 }, "geometry": { "type": "Point", "coordinates": [ -112.828391081299998, 37.844886912299998 ] } },
{ "type": "Feature", "properties": { "SchoolName": "Garrison School", "Enrol_Elem": 17, "Enrol_Midl": 0, "Enrol_High": 0, "PublicElem": 17, "PublicMidl": 0, "PublicHigh": 0, "PriChaElem": 0, "PriChaMidl": 0, "PriChaHigh": 0 }, "geometry": { "type": "Point", "coordinates": [ -114.035674182799994, 38.934610705300003 ] } },
{ "type": "Feature", "properties": { "SchoolName": "Fillmore Middle", "Enrol_Elem": 0, "Enrol_Midl": 379, "Enrol_High": 0, "PublicElem": 0, "PublicMidl": 379, "PublicHigh": 0, "PriChaElem": 0, "PriChaMidl": 0, "PriChaHigh": 0 }, "geometry": { "type": "Point", "coordinates": [ -112.336612262499997, 38.959123014600003 ] } },
{ "type": "Feature", "properties": { "SchoolName": "Delta High", "Enrol_Elem": 0, "Enrol_Midl": 0, "Enrol_High": 516, "PublicElem": 0, "PublicMidl": 0, "PublicHigh": 516, "PriChaElem": 0, "PriChaMidl": 0, "PriChaHigh": 0 }, "geometry": { "type": "Point", "coordinates": [ -112.575725134, 39.358337046199999 ] } },
{ "type": "Feature", "properties": { "SchoolName": "Indian Hills Middle", "Enrol_Elem": 0, "Enrol_Midl": 1202, "Enrol_High": 0, "PublicElem": 0, "PublicMidl": 1202, "PublicHigh": 0, "PriChaElem": 0, "PriChaMidl": 0, "PriChaHigh": 0 }, "geometry": { "type": "Point", "coordinates": [ -111.856811321799995, 40.5390144132 ] } },
{ "type": "Feature", "properties": { "SchoolName": "Joel P. Jensen Middle", "Enrol_Elem": 0, "Enrol_Midl": 896, "Enrol_High": 0, "PublicElem": 0, "PublicMidl": 896, "PublicHigh": 0, "PriChaElem": 0, "PriChaMidl": 0, "PriChaHigh": 0 }, "geometry": { "type": "Point", "coordinates": [ -111.9658778501, 40.604209579600003 ] } },
{ "type": "Feature", "properties": { "SchoolName": "Bluffdale School", "Enrol_Elem": 796, "Enrol_Midl": 0, "Enrol_High": 0, "PublicElem": 796, "PublicMidl": 0, "PublicHigh": 0, "PriChaElem": 0, "PriChaMidl": 0, "PriChaHigh": 0 }, "geometry": { "type": "Point", "coordinates": [ -111.9564406402, 40.491210269500002 ] } },
{ "type": "Feature", "properties": { "SchoolName": "Millard High", "Enrol_Elem": 0, "Enrol_Midl": 0, "Enrol_High": 377, "PublicElem": 0, "PublicMidl": 0, "PublicHigh": 377, "PriChaElem": 0, "PriChaMidl": 0, "PriChaHigh": 0 }, "geometry": { "type": "Point", "coordinates": [ -112.329431620600005, 38.9699424318 ] } },
{ "type": "Feature", "properties": { "SchoolName": "Canyon View School", "Enrol_Elem": 462, "Enrol_Midl": 0, "Enrol_High": 0, "PublicElem": 462, "PublicMidl": 0, "PublicHigh": 0, "PriChaElem": 0, "PriChaMidl": 0, "PriChaHigh": 0 }, "geometry": { "type": "Point", "coordinates": [ -111.806498624900001, 40.608785525099997 ] } },
{ "type": "Feature", "properties": { "SchoolName": "Columbia School", "Enrol_Elem": 649, "Enrol_Midl": 0, "Enrol_High": 0, "PublicElem": 649, "PublicMidl": 0, "PublicHigh": 0, "PriChaElem": 0, "PriChaMidl": 0, "PriChaHigh": 0 }, "geometry": { "type": "Point", "coordinates": [ -111.975394803499995, 40.608580773900002 ] } },
{ "type": "Feature", "properties": { "SchoolName": "Copperview School", "Enrol_Elem": 409, "Enrol_Midl": 0, "Enrol_High": 0, "PublicElem": 409, "PublicMidl": 0, "PublicHigh": 0, "PriChaElem": 0, "PriChaMidl": 0, "PriChaHigh": 0 }, "geometry": { "type": "Point", "coordinates": [ -111.894911274199998, 40.597758988099997 ] } },
{ "type": "Feature", "properties": { "SchoolName": "Morgan School", "Enrol_Elem": 593, "Enrol_Midl": 0, "Enrol_High": 0, "PublicElem": 593, "PublicMidl": 0, "PublicHigh": 0, "PriChaElem": 0, "PriChaMidl": 0, "PriChaHigh": 0 }, "geometry": { "type": "Point", "coordinates": [ -111.671321860299997, 41.037138883600001 ] } },
{ "type": "Feature", "properties": { "SchoolName": "Brockbank School", "Enrol_Elem": 619, "Enrol_Midl": 0, "Enrol_High": 0, "PublicElem": 619, "PublicMidl": 0, "PublicHigh": 0, "PriChaElem": 0, "PriChaMidl": 0, "PriChaHigh": 0 }, "geometry": { "type": "Point", "coordinates": [ -111.660703391, 40.116766626900002 ] } },
{ "type": "Feature", "properties": { "SchoolName": "Oquirrh Hills Middle", "Enrol_Elem": 0, "Enrol_Midl": 1304, "Enrol_High": 0, "PublicElem": 0, "PublicMidl": 1304, "PublicHigh": 0, "PriChaElem": 0, "PriChaMidl": 0, "PriChaHigh": 0 }, "geometry": { "type": "Point", "coordinates": [ -111.955492524199997, 40.516035606599999 ] } },
{ "type": "Feature", "properties": { "SchoolName": "Riverton High", "Enrol_Elem": 0, "Enrol_Midl": 0, "Enrol_High": 2230, "PublicElem": 0, "PublicMidl": 0, "PublicHigh": 2230, "PriChaElem": 0, "PriChaMidl": 0, "PriChaHigh": 0 }, "geometry": { "type": "Point", "coordinates": [ -111.959568861500003, 40.5247520661 ] } },
{ "type": "Feature", "properties": { "SchoolName": "Brookside School", "Enrol_Elem": 481, "Enrol_Midl": 0, "Enrol_High": 0, "PublicElem": 481, "PublicMidl": 0, "PublicHigh": 0, "PriChaElem": 0, "PriChaMidl": 0, "PriChaHigh": 0 }, "geometry": { "type": "Point", "coordinates": [ -111.597806094600003, 40.160268389800002 ] } },
{ "type": "Feature", "properties": { "SchoolName": "Canyon School", "Enrol_Elem": 543, "Enrol_Midl": 0, "Enrol_High": 0, "PublicElem": 543, "PublicMidl": 0, "PublicHigh": 0, "PriChaElem": 0, "PriChaMidl": 0, "PriChaHigh": 0 }, "geometry": { "type": "Point", "coordinates": [ -111.628595621900004, 40.092590916500001 ] } },
{ "type": "Feature", "properties": { "SchoolName": "Crescent School", "Enrol_Elem": 459, "Enrol_Midl": 0, "Enrol_High": 0, "PublicElem": 459, "PublicMidl": 0, "PublicHigh": 0, "PriChaElem": 0, "PriChaMidl": 0, "PriChaHigh": 0 }, "geometry": { "type": "Point", "coordinates": [ -111.885598374899999, 40.549565545599997 ] } },
{ "type": "Feature", "properties": { "SchoolName": "Goshen School", "Enrol_Elem": 318, "Enrol_Midl": 0, "Enrol_High": 0, "PublicElem": 318, "PublicMidl": 0, "PublicHigh": 0, "PriChaElem": 0, "PriChaMidl": 0, "PriChaHigh": 0 }, "geometry": { "type": "Point", "coordinates": [ -111.899302083, 39.954018354600002 ] } },
{ "type": "Feature", "properties": { "SchoolName": "West Jordan High", "Enrol_Elem": 0, "Enrol_Midl": 0, "Enrol_High": 1795, "PublicElem": 0, "PublicMidl": 0, "PublicHigh": 1795, "PriChaElem": 0, "PriChaMidl": 0, "PriChaHigh": 0 }, "geometry": { "type": "Point", "coordinates": [ -111.959411960899999, 40.603760789200003 ] } },
{ "type": "Feature", "properties": { "SchoolName": "Draper School", "Enrol_Elem": 705, "Enrol_Midl": 0, "Enrol_High": 0, "PublicElem": 705, "PublicMidl": 0, "PublicHigh": 0, "PriChaElem": 0, "PriChaMidl": 0, "PriChaHigh": 0 }, "geometry": { "type": "Point", "coordinates": [ -111.861031567500007, 40.520747393800001 ] } },
{ "type": "Feature", "properties": { "SchoolName": "Westside School", "Enrol_Elem": 696, "Enrol_Midl": 0, "Enrol_High": 0, "PublicElem": 696, "PublicMidl": 0, "PublicHigh": 0, "PriChaElem": 0, "PriChaMidl": 0, "PriChaHigh": 0 }, "geometry": { "type": "Point", "coordinates": [ -111.624009190600006, 40.1674530258 ] } },
{ "type": "Feature", "properties": { "SchoolName": "Wilson School", "Enrol_Elem": 408, "Enrol_Midl": 0, "Enrol_High": 0, "PublicElem": 408, "PublicMidl": 0, "PublicHigh": 0, "PriChaElem": 0, "PriChaMidl": 0, "PriChaHigh": 0 }, "geometry": { "type": "Point", "coordinates": [ -111.7410963377, 40.037036567 ] } },
{ "type": "Feature", "properties": { "SchoolName": "East Midvale School", "Enrol_Elem": 552, "Enrol_Midl": 0, "Enrol_High": 0, "PublicElem": 552, "PublicMidl": 0, "PublicHigh": 0, "PriChaElem": 0, "PriChaMidl": 0, "PriChaHigh": 0 }, "geometry": { "type": "Point", "coordinates": [ -111.882998438499996, 40.624992037299997 ] } },
{ "type": "Feature", "properties": { "SchoolName": "South Valley School", "Enrol_Elem": 0, "Enrol_Midl": 0, "Enrol_High": 163, "PublicElem": 0, "PublicMidl": 0, "PublicHigh": 163, "PriChaElem": 0, "PriChaMidl": 0, "PriChaHigh": 0 }, "geometry": { "type": "Point", "coordinates": [ -111.940028126300007, 40.598641098599998 ] } },
{ "type": "Feature", "properties": { "SchoolName": "Riverton School", "Enrol_Elem": 658, "Enrol_Midl": 0, "Enrol_High": 0, "PublicElem": 658, "PublicMidl": 0, "PublicHigh": 0, "PriChaElem": 0, "PriChaMidl": 0, "PriChaHigh": 0 }, "geometry": { "type": "Point", "coordinates": [ -111.944335391699994, 40.5121805693 ] } },
{ "type": "Feature", "properties": { "SchoolName": "Payson Jr High", "Enrol_Elem": 0, "Enrol_Midl": 1224, "Enrol_High": 0, "PublicElem": 0, "PublicMidl": 1224, "PublicHigh": 0, "PriChaElem": 0, "PriChaMidl": 0, "PriChaHigh": 0 }, "geometry": { "type": "Point", "coordinates": [ -111.7376298585, 40.0285049509 ] } },
{ "type": "Feature", "properties": { "SchoolName": "Jordan Valley School", "Enrol_Elem": 48, "Enrol_Midl": 15, "Enrol_High": 40, "PublicElem": 48, "PublicMidl": 15, "PublicHigh": 40, "PriChaElem": 0, "PriChaMidl": 0, "PriChaHigh": 0 }, "geometry": { "type": "Point", "coordinates": [ -111.861479287799995, 40.6150125996 ] } },
{ "type": "Feature", "properties": { "SchoolName": "Riverside School", "Enrol_Elem": 719, "Enrol_Midl": 0, "Enrol_High": 0, "PublicElem": 719, "PublicMidl": 0, "PublicHigh": 0, "PriChaElem": 0, "PriChaMidl": 0, "PriChaHigh": 0 }, "geometry": { "type": "Point", "coordinates": [ -111.926036495600002, 40.592687674899999 ] } },
{ "type": "Feature", "properties": { "SchoolName": "Spanish Fork Jr High", "Enrol_Elem": 0, "Enrol_Midl": 1255, "Enrol_High": 0, "PublicElem": 0, "PublicMidl": 1255, "PublicHigh": 0, "PriChaElem": 0, "PriChaMidl": 0, "PriChaHigh": 0 }, "geometry": { "type": "Point", "coordinates": [ -111.641527745399998, 40.102336645599998 ] } },
{ "type": "Feature", "properties": { "SchoolName": "Quail Hollow School", "Enrol_Elem": 484, "Enrol_Midl": 0, "Enrol_High": 0, "PublicElem": 484, "PublicMidl": 0, "PublicHigh": 0, "PriChaElem": 0, "PriChaMidl": 0, "PriChaHigh": 0 }, "geometry": { "type": "Point", "coordinates": [ -111.816489495200003, 40.587132217099999 ] } },
{ "type": "Feature", "properties": { "SchoolName": "Payson High", "Enrol_Elem": 0, "Enrol_Midl": 0, "Enrol_High": 1459, "PublicElem": 0, "PublicMidl": 0, "PublicHigh": 1459, "PriChaElem": 0, "PriChaMidl": 0, "PriChaHigh": 0 }, "geometry": { "type": "Point", "coordinates": [ -111.733393563600004, 40.028216503599999 ] } },
{ "type": "Feature", "properties": { "SchoolName": "Spanish Fork High", "Enrol_Elem": 0, "Enrol_Midl": 0, "Enrol_High": 1442, "PublicElem": 0, "PublicMidl": 0, "PublicHigh": 1442, "PriChaElem": 0, "PriChaMidl": 0, "PriChaHigh": 0 }, "geometry": { "type": "Point", "coordinates": [ -111.6610416579, 40.111101310099997 ] } },
{ "type": "Feature", "properties": { "SchoolName": "Park Lane School", "Enrol_Elem": 394, "Enrol_Midl": 0, "Enrol_High": 0, "PublicElem": 394, "PublicMidl": 0, "PublicHigh": 0, "PriChaElem": 0, "PriChaMidl": 0, "PriChaHigh": 0 }, "geometry": { "type": "Point", "coordinates": [ -111.823518076599996, 40.57026838 ] } },
{ "type": "Feature", "properties": { "SchoolName": "Springville High", "Enrol_Elem": 0, "Enrol_Midl": 0, "Enrol_High": 1504, "PublicElem": 0, "PublicMidl": 0, "PublicHigh": 1504, "PriChaElem": 0, "PriChaMidl": 0, "PriChaHigh": 0 }, "geometry": { "type": "Point", "coordinates": [ -111.588100257, 40.155062866100003 ] } },
{ "type": "Feature", "properties": { "SchoolName": "Fountain Green School", "Enrol_Elem": 147, "Enrol_Midl": 0, "Enrol_High": 0, "PublicElem": 147, "PublicMidl": 0, "PublicHigh": 0, "PriChaElem": 0, "PriChaMidl": 0, "PriChaHigh": 0 }, "geometry": { "type": "Point", "coordinates": [ -111.641399855800003, 39.626454454600001 ] } },
{ "type": "Feature", "properties": { "SchoolName": "Red Hills Middle", "Enrol_Elem": 0, "Enrol_Midl": 563, "Enrol_High": 0, "PublicElem": 0, "PublicMidl": 563, "PublicHigh": 0, "PriChaElem": 0, "PriChaMidl": 0, "PriChaHigh": 0 }, "geometry": { "type": "Point", "coordinates": [ -112.095766413199996, 38.762501452499997 ] } },
{ "type": "Feature", "properties": { "SchoolName": "North Sevier High", "Enrol_Elem": 0, "Enrol_Midl": 0, "Enrol_High": 281, "PublicElem": 0, "PublicMidl": 0, "PublicHigh": 281, "PriChaElem": 0, "PriChaMidl": 0, "PriChaHigh": 0 }, "geometry": { "type": "Point", "coordinates": [ -111.865611930699998, 38.9641349921 ] } },
{ "type": "Feature", "properties": { "SchoolName": "Moroni School", "Enrol_Elem": 319, "Enrol_Midl": 0, "Enrol_High": 0, "PublicElem": 319, "PublicMidl": 0, "PublicHigh": 0, "PriChaElem": 0, "PriChaMidl": 0, "PriChaHigh": 0 }, "geometry": { "type": "Point", "coordinates": [ -111.586699031600006, 39.527376303099999 ] } },
{ "type": "Feature", "properties": { "SchoolName": "North Summit School", "Enrol_Elem": 361, "Enrol_Midl": 0, "Enrol_High": 0, "PublicElem": 361, "PublicMidl": 0, "PublicHigh": 0, "PriChaElem": 0, "PriChaMidl": 0, "PriChaHigh": 0 }, "geometry": { "type": "Point", "coordinates": [ -111.391308914, 40.912978459100003 ] } },
{ "type": "Feature", "properties": { "SchoolName": "West Hills Middle", "Enrol_Elem": 0, "Enrol_Midl": 1361, "Enrol_High": 0, "PublicElem": 0, "PublicMidl": 1361, "PublicHigh": 0, "PriChaElem": 0, "PriChaMidl": 0, "PriChaHigh": 0 }, "geometry": { "type": "Point", "coordinates": [ -112.021455973599998, 40.601230608 ] } },
{ "type": "Feature", "properties": { "SchoolName": "South Hills Middle", "Enrol_Elem": 0, "Enrol_Midl": 1341, "Enrol_High": 0, "PublicElem": 0, "PublicMidl": 1341, "PublicHigh": 0, "PriChaElem": 0, "PriChaMidl": 0, "PriChaHigh": 0 }, "geometry": { "type": "Point", "coordinates": [ -111.987694743899993, 40.505763270099997 ] } },
{ "type": "Feature", "properties": { "SchoolName": "Richfield High", "Enrol_Elem": 0, "Enrol_Midl": 0, "Enrol_High": 680, "PublicElem": 0, "PublicMidl": 0, "PublicHigh": 680, "PriChaElem": 0, "PriChaMidl": 0, "PriChaHigh": 0 }, "geometry": { "type": "Point", "coordinates": [ -112.093870918600004, 38.767259186399997 ] } },
{ "type": "Feature", "properties": { "SchoolName": "South Sevier High", "Enrol_Elem": 0, "Enrol_Midl": 0, "Enrol_High": 398, "PublicElem": 0, "PublicMidl": 0, "PublicHigh": 398, "PriChaElem": 0, "PriChaMidl": 0, "PriChaHigh": 0 }, "geometry": { "type": "Point", "coordinates": [ -112.131348678899997, 38.630489951800001 ] } },
{ "type": "Feature", "properties": { "SchoolName": "North Summit Middle", "Enrol_Elem": 0, "Enrol_Midl": 329, "Enrol_High": 0, "PublicElem": 0, "PublicMidl": 329, "PublicHigh": 0, "PriChaElem": 0, "PriChaMidl": 0, "PriChaHigh": 0 }, "geometry": { "type": "Point", "coordinates": [ -111.396008445, 40.9160598454 ] } },
{ "type": "Feature", "properties": { "SchoolName": "North Summit High", "Enrol_Elem": 0, "Enrol_Midl": 0, "Enrol_High": 324, "PublicElem": 0, "PublicMidl": 0, "PublicHigh": 324, "PriChaElem": 0, "PriChaMidl": 0, "PriChaHigh": 0 }, "geometry": { "type": "Point", "coordinates": [ -111.3941880693, 40.915798084 ] } },
{ "type": "Feature", "properties": { "SchoolName": "Cedar Ridge High", "Enrol_Elem": 0, "Enrol_Midl": 0, "Enrol_High": 41, "PublicElem": 0, "PublicMidl": 0, "PublicHigh": 41, "PriChaElem": 0, "PriChaMidl": 0, "PriChaHigh": 0 }, "geometry": { "type": "Point", "coordinates": [ -112.0938388613, 38.769207472 ] } },
{ "type": "Feature", "properties": { "SchoolName": "La Sal School", "Enrol_Elem": 9, "Enrol_Midl": 0, "Enrol_High": 0, "PublicElem": 9, "PublicMidl": 0, "PublicHigh": 0, "PriChaElem": 0, "PriChaMidl": 0, "PriChaHigh": 0 }, "geometry": { "type": "Point", "coordinates": [ -109.251801179899999, 38.312822476 ] } },
{ "type": "Feature", "properties": { "SchoolName": "Montezuma Creek School", "Enrol_Elem": 243, "Enrol_Midl": 0, "Enrol_High": 0, "PublicElem": 243, "PublicMidl": 0, "PublicHigh": 0, "PriChaElem": 0, "PriChaMidl": 0, "PriChaHigh": 0 }, "geometry": { "type": "Point", "coordinates": [ -109.304907641900002, 37.260605135399999 ] } },
{ "type": "Feature", "properties": { "SchoolName": "Alta High", "Enrol_Elem": 0, "Enrol_Midl": 0, "Enrol_High": 2290, "PublicElem": 0, "PublicMidl": 0, "PublicHigh": 2290, "PriChaElem": 0, "PriChaMidl": 0, "PriChaHigh": 0 }, "geometry": { "type": "Point", "coordinates": [ -111.861105148500002, 40.550012858199999 ] } },
{ "type": "Feature", "properties": { "SchoolName": "Ephraim School", "Enrol_Elem": 525, "Enrol_Midl": 0, "Enrol_High": 0, "PublicElem": 525, "PublicMidl": 0, "PublicHigh": 0, "PriChaElem": 0, "PriChaMidl": 0, "PriChaHigh": 0 }, "geometry": { "type": "Point", "coordinates": [ -111.580573830199995, 39.349593379799998 ] } },
{ "type": "Feature", "properties": { "SchoolName": "Monticello School", "Enrol_Elem": 282, "Enrol_Midl": 0, "Enrol_High": 0, "PublicElem": 282, "PublicMidl": 0, "PublicHigh": 0, "PriChaElem": 0, "PriChaMidl": 0, "PriChaHigh": 0 }, "geometry": { "type": "Point", "coordinates": [ -109.347004192699998, 37.87539899 ] } },
{ "type": "Feature", "properties": { "SchoolName": "Albert R. Lyman Middle", "Enrol_Elem": 0, "Enrol_Midl": 329, "Enrol_High": 0, "PublicElem": 0, "PublicMidl": 329, "PublicHigh": 0, "PriChaElem": 0, "PriChaMidl": 0, "PriChaHigh": 0 }, "geometry": { "type": "Point", "coordinates": [ -109.4770354666, 37.632861210100003 ] } },
{ "type": "Feature", "properties": { "SchoolName": "Mona School", "Enrol_Elem": 323, "Enrol_Midl": 0, "Enrol_High": 0, "PublicElem": 323, "PublicMidl": 0, "PublicHigh": 0, "PriChaElem": 0, "PriChaMidl": 0, "PriChaHigh": 0 }, "geometry": { "type": "Point", "coordinates": [ -111.8504423949, 39.8131412567 ] } },
{ "type": "Feature", "properties": { "SchoolName": "Northlake School", "Enrol_Elem": 609, "Enrol_Midl": 0, "Enrol_High": 0, "PublicElem": 609, "PublicMidl": 0, "PublicHigh": 0, "PriChaElem": 0, "PriChaMidl": 0, "PriChaHigh": 0 }, "geometry": { "type": "Point", "coordinates": [ -112.312783737199993, 40.535518226500002 ] } },
{ "type": "Feature", "properties": { "SchoolName": "Vernon School", "Enrol_Elem": 27, "Enrol_Midl": 0, "Enrol_High": 0, "PublicElem": 27, "PublicMidl": 0, "PublicHigh": 0, "PriChaElem": 0, "PriChaMidl": 0, "PriChaHigh": 0 }, "geometry": { "type": "Point", "coordinates": [ -112.4330068931, 40.093529215399997 ] } },
{ "type": "Feature", "properties": { "SchoolName": "Anna Smith School", "Enrol_Elem": 201, "Enrol_Midl": 0, "Enrol_High": 0, "PublicElem": 201, "PublicMidl": 0, "PublicHigh": 0, "PriChaElem": 0, "PriChaMidl": 0, "PriChaHigh": 0 }, "geometry": { "type": "Point", "coordinates": [ -114.041602683700006, 40.745982981099999 ] } },
{ "type": "Feature", "properties": { "SchoolName": "Gunnison Valley School", "Enrol_Elem": 506, "Enrol_Midl": 0, "Enrol_High": 0, "PublicElem": 506, "PublicMidl": 0, "PublicHigh": 0, "PriChaElem": 0, "PriChaMidl": 0, "PriChaHigh": 0 }, "geometry": { "type": "Point", "coordinates": [ -111.810144948599998, 39.144071742599998 ] } },
{ "type": "Feature", "properties": { "SchoolName": "Manti School", "Enrol_Elem": 386, "Enrol_Midl": 0, "Enrol_High": 0, "PublicElem": 386, "PublicMidl": 0, "PublicHigh": 0, "PriChaElem": 0, "PriChaMidl": 0, "PriChaHigh": 0 }, "geometry": { "type": "Point", "coordinates": [ -111.639791753799997, 39.264480389500001 ] } },
{ "type": "Feature", "properties": { "SchoolName": "Red Cliff School", "Enrol_Elem": 538, "Enrol_Midl": 0, "Enrol_High": 0, "PublicElem": 538, "PublicMidl": 0, "PublicHigh": 0, "PriChaElem": 0, "PriChaMidl": 0, "PriChaHigh": 0 }, "geometry": { "type": "Point", "coordinates": [ -111.834708718900004, 39.691122164299998 ] } },
{ "type": "Feature", "properties": { "SchoolName": "Juab Jr High", "Enrol_Elem": 0, "Enrol_Midl": 671, "Enrol_High": 0, "PublicElem": 0, "PublicMidl": 671, "PublicHigh": 0, "PriChaElem": 0, "PriChaMidl": 0, "PriChaHigh": 0 }, "geometry": { "type": "Point", "coordinates": [ -111.825054679, 39.720000830499998 ] } },
{ "type": "Feature", "properties": { "SchoolName": "West School", "Enrol_Elem": 318, "Enrol_Midl": 0, "Enrol_High": 0, "PublicElem": 318, "PublicMidl": 0, "PublicHigh": 0, "PriChaElem": 0, "PriChaMidl": 0, "PriChaHigh": 0 }, "geometry": { "type": "Point", "coordinates": [ -112.310949666599996, 40.524770527900003 ] } },
{ "type": "Feature", "properties": { "SchoolName": "Grantsville Jr High", "Enrol_Elem": 0, "Enrol_Midl": 464, "Enrol_High": 0, "PublicElem": 0, "PublicMidl": 464, "PublicHigh": 0, "PriChaElem": 0, "PriChaMidl": 0, "PriChaHigh": 0 }, "geometry": { "type": "Point", "coordinates": [ -112.464576351199995, 40.5911481451 ] } },
{ "type": "Feature", "properties": { "SchoolName": "Ephraim Middle", "Enrol_Elem": 0, "Enrol_Midl": 510, "Enrol_High": 0, "PublicElem": 0, "PublicMidl": 510, "PublicHigh": 0, "PriChaElem": 0, "PriChaMidl": 0, "PriChaHigh": 0 }, "geometry": { "type": "Point", "coordinates": [ -111.583086613899994, 39.350268876199998 ] } },
{ "type": "Feature", "properties": { "SchoolName": "Gunnison Valley High", "Enrol_Elem": 0, "Enrol_Midl": 0, "Enrol_High": 322, "PublicElem": 0, "PublicMidl": 0, "PublicHigh": 322, "PriChaElem": 0, "PriChaMidl": 0, "PriChaHigh": 0 }, "geometry": { "type": "Point", "coordinates": [ -111.816923706699995, 39.143055027300001 ] } },
{ "type": "Feature", "properties": { "SchoolName": "Juab High", "Enrol_Elem": 0, "Enrol_Midl": 0, "Enrol_High": 804, "PublicElem": 0, "PublicMidl": 0, "PublicHigh": 804, "PriChaElem": 0, "PriChaMidl": 0, "PriChaHigh": 0 }, "geometry": { "type": "Point", "coordinates": [ -111.822901051700001, 39.720506263300003 ] } },
{ "type": "Feature", "properties": { "SchoolName": "Tooele Jr High", "Enrol_Elem": 0, "Enrol_Midl": 777, "Enrol_High": 0, "PublicElem": 0, "PublicMidl": 777, "PublicHigh": 0, "PriChaElem": 0, "PriChaMidl": 0, "PriChaHigh": 0 }, "geometry": { "type": "Point", "coordinates": [ -112.310440259, 40.528637126699998 ] } },
{ "type": "Feature", "properties": { "SchoolName": "Manti High", "Enrol_Elem": 0, "Enrol_Midl": 0, "Enrol_High": 690, "PublicElem": 0, "PublicMidl": 0, "PublicHigh": 690, "PriChaElem": 0, "PriChaMidl": 0, "PriChaHigh": 0 }, "geometry": { "type": "Point", "coordinates": [ -111.639239010500006, 39.274069143299997 ] } },
{ "type": "Feature", "properties": { "SchoolName": "Grantsville High", "Enrol_Elem": 0, "Enrol_Midl": 0, "Enrol_High": 962, "PublicElem": 0, "PublicMidl": 0, "PublicHigh": 962, "PriChaElem": 0, "PriChaMidl": 0, "PriChaHigh": 0 }, "geometry": { "type": "Point", "coordinates": [ -112.457982884100005, 40.596184403800002 ] } },
{ "type": "Feature", "properties": { "SchoolName": "Tooele High", "Enrol_Elem": 0, "Enrol_Midl": 0, "Enrol_High": 1750, "PublicElem": 0, "PublicMidl": 0, "PublicHigh": 1750, "PriChaElem": 0, "PriChaMidl": 0, "PriChaHigh": 0 }, "geometry": { "type": "Point", "coordinates": [ -112.308170115699994, 40.529781993599997 ] } },
{ "type": "Feature", "properties": { "SchoolName": "South Summit School", "Enrol_Elem": 560, "Enrol_Midl": 0, "Enrol_High": 0, "PublicElem": 560, "PublicMidl": 0, "PublicHigh": 0, "PriChaElem": 0, "PriChaMidl": 0, "PriChaHigh": 0 }, "geometry": { "type": "Point", "coordinates": [ -111.269091417300004, 40.638902574200003 ] } },
{ "type": "Feature", "properties": { "SchoolName": "South Summit Middle", "Enrol_Elem": 0, "Enrol_Midl": 506, "Enrol_High": 0, "PublicElem": 0, "PublicMidl": 506, "PublicHigh": 0, "PriChaElem": 0, "PriChaMidl": 0, "PriChaHigh": 0 }, "geometry": { "type": "Point", "coordinates": [ -111.272413363799998, 40.639194778700002 ] } },
{ "type": "Feature", "properties": { "SchoolName": "Kanab School", "Enrol_Elem": 457, "Enrol_Midl": 0, "Enrol_High": 0, "PublicElem": 457, "PublicMidl": 0, "PublicHigh": 0, "PriChaElem": 0, "PriChaMidl": 0, "PriChaHigh": 0 }, "geometry": { "type": "Point", "coordinates": [ -112.529526042900002, 37.049561967099997 ] } },
{ "type": "Feature", "properties": { "SchoolName": "Valley School", "Enrol_Elem": 165, "Enrol_Midl": 0, "Enrol_High": 0, "PublicElem": 165, "PublicMidl": 0, "PublicHigh": 0, "PriChaElem": 0, "PriChaMidl": 0, "PriChaHigh": 0 }, "geometry": { "type": "Point", "coordinates": [ -112.636207696900001, 37.275290773499997 ] } },
{ "type": "Feature", "properties": { "SchoolName": "Wendover High", "Enrol_Elem": 0, "Enrol_Midl": 108, "Enrol_High": 90, "PublicElem": 0, "PublicMidl": 108, "PublicHigh": 90, "PriChaElem": 0, "PriChaMidl": 0, "PriChaHigh": 0 }, "geometry": { "type": "Point", "coordinates": [ -114.037460229399997, 40.7364943997 ] } },
{ "type": "Feature", "properties": { "SchoolName": "Blue Peak High", "Enrol_Elem": 1994, "Enrol_Midl": 677, "Enrol_High": 761, "PublicElem": 1994, "PublicMidl": 677, "PublicHigh": 761, "PriChaElem": 0, "PriChaMidl": 0, "PriChaHigh": 0 }, "geometry": { "type": "Point", "coordinates": [ -112.324354906699995, 40.526034065200001 ] } },
{ "type": "Feature", "properties": { "SchoolName": "South Summit High", "Enrol_Elem": 0, "Enrol_Midl": 0, "Enrol_High": 466, "PublicElem": 0, "PublicMidl": 0, "PublicHigh": 466, "PriChaElem": 0, "PriChaMidl": 0, "PriChaHigh": 0 }, "geometry": { "type": "Point", "coordinates": [ -111.273347521, 40.641778093699997 ] } },
{ "type": "Feature", "properties": { "SchoolName": "Lake Powell High School", "Enrol_Elem": 0, "Enrol_Midl": 7, "Enrol_High": 0, "PublicElem": 0, "PublicMidl": 7, "PublicHigh": 0, "PriChaElem": 0, "PriChaMidl": 0, "PriChaHigh": 0 }, "geometry": { "type": "Point", "coordinates": [ -110.708323145199998, 37.525455593399997 ] } },
{ "type": "Feature", "properties": { "SchoolName": "Maeser School", "Enrol_Elem": 542, "Enrol_Midl": 0, "Enrol_High": 0, "PublicElem": 542, "PublicMidl": 0, "PublicHigh": 0, "PriChaElem": 0, "PriChaMidl": 0, "PriChaHigh": 0 }, "geometry": { "type": "Point", "coordinates": [ -109.579762735800003, 40.470948705300003 ] } },
{ "type": "Feature", "properties": { "SchoolName": "Naples School", "Enrol_Elem": 528, "Enrol_Midl": 0, "Enrol_High": 0, "PublicElem": 528, "PublicMidl": 0, "PublicHigh": 0, "PriChaElem": 0, "PriChaMidl": 0, "PriChaHigh": 0 }, "geometry": { "type": "Point", "coordinates": [ -109.495771550300006, 40.427554873799998 ] } },
{ "type": "Feature", "properties": { "SchoolName": "Kanab Middle", "Enrol_Elem": 0, "Enrol_Midl": 152, "Enrol_High": 0, "PublicElem": 0, "PublicMidl": 152, "PublicHigh": 0, "PriChaElem": 0, "PriChaMidl": 0, "PriChaHigh": 0 }, "geometry": { "type": "Point", "coordinates": [ -112.530184760400005, 37.036795888 ] } },
{ "type": "Feature", "properties": { "SchoolName": "Kanab High", "Enrol_Elem": 0, "Enrol_Midl": 0, "Enrol_High": 270, "PublicElem": 0, "PublicMidl": 0, "PublicHigh": 270, "PriChaElem": 0, "PriChaMidl": 0, "PriChaHigh": 0 }, "geometry": { "type": "Point", "coordinates": [ -112.527871126899996, 37.038524390500001 ] } },
{ "type": "Feature", "properties": { "SchoolName": "Vernal Middle", "Enrol_Elem": 0, "Enrol_Midl": 900, "Enrol_High": 0, "PublicElem": 0, "PublicMidl": 900, "PublicHigh": 0, "PriChaElem": 0, "PriChaMidl": 0, "PriChaHigh": 0 }, "geometry": { "type": "Point", "coordinates": [ -109.542385822100002, 40.4532264041 ] } },
{ "type": "Feature", "properties": { "SchoolName": "Ashley School", "Enrol_Elem": 589, "Enrol_Midl": 0, "Enrol_High": 0, "PublicElem": 589, "PublicMidl": 0, "PublicHigh": 0, "PriChaElem": 0, "PriChaMidl": 0, "PriChaHigh": 0 }, "geometry": { "type": "Point", "coordinates": [ -109.549989103399994, 40.460720832900002 ] } },
{ "type": "Feature", "properties": { "SchoolName": "Valley High", "Enrol_Elem": 0, "Enrol_Midl": 69, "Enrol_High": 73, "PublicElem": 0, "PublicMidl": 69, "PublicHigh": 73, "PriChaElem": 0, "PriChaMidl": 0, "PriChaHigh": 0 }, "geometry": { "type": "Point", "coordinates": [ -112.637699490399996, 37.278084905699998 ] } },
{ "type": "Feature", "properties": { "SchoolName": "Davis School", "Enrol_Elem": 495, "Enrol_Midl": 0, "Enrol_High": 0, "PublicElem": 495, "PublicMidl": 0, "PublicHigh": 0, "PriChaElem": 0, "PriChaMidl": 0, "PriChaHigh": 0 }, "geometry": { "type": "Point", "coordinates": [ -109.478785573400003, 40.396846952300002 ] } },
{ "type": "Feature", "properties": { "SchoolName": "Discovery School", "Enrol_Elem": 734, "Enrol_Midl": 0, "Enrol_High": 0, "PublicElem": 734, "PublicMidl": 0, "PublicHigh": 0, "PriChaElem": 0, "PriChaMidl": 0, "PriChaHigh": 0 }, "geometry": { "type": "Point", "coordinates": [ -109.541237242500003, 40.4380647857 ] } },
{ "type": "Feature", "properties": { "SchoolName": "J.R. Smith School", "Enrol_Elem": 586, "Enrol_Midl": 0, "Enrol_High": 0, "PublicElem": 586, "PublicMidl": 0, "PublicHigh": 0, "PriChaElem": 0, "PriChaMidl": 0, "PriChaHigh": 0 }, "geometry": { "type": "Point", "coordinates": [ -111.409443574700006, 40.5147633646 ] } },
{ "type": "Feature", "properties": { "SchoolName": "Larsen School", "Enrol_Elem": 425, "Enrol_Midl": 0, "Enrol_High": 0, "PublicElem": 425, "PublicMidl": 0, "PublicHigh": 0, "PriChaElem": 0, "PriChaMidl": 0, "PriChaHigh": 0 }, "geometry": { "type": "Point", "coordinates": [ -111.633953002699997, 40.1066110366 ] } },
{ "type": "Feature", "properties": { "SchoolName": "Mapleton School", "Enrol_Elem": 676, "Enrol_Midl": 0, "Enrol_High": 0, "PublicElem": 676, "PublicMidl": 0, "PublicHigh": 0, "PriChaElem": 0, "PriChaMidl": 0, "PriChaHigh": 0 }, "geometry": { "type": "Point", "coordinates": [ -111.580539120200001, 40.130844740100002 ] } },
{ "type": "Feature", "properties": { "SchoolName": "Eureka School", "Enrol_Elem": 87, "Enrol_Midl": 0, "Enrol_High": 0, "PublicElem": 87, "PublicMidl": 0, "PublicHigh": 0, "PriChaElem": 0, "PriChaMidl": 0, "PriChaHigh": 0 }, "geometry": { "type": "Point", "coordinates": [ -112.113343266, 39.956501972 ] } },
{ "type": "Feature", "properties": { "SchoolName": "Riley School", "Enrol_Elem": 279, "Enrol_Midl": 0, "Enrol_High": 0, "PublicElem": 279, "PublicMidl": 0, "PublicHigh": 0, "PriChaElem": 0, "PriChaMidl": 0, "PriChaHigh": 0 }, "geometry": { "type": "Point", "coordinates": [ -111.914740639, 40.7386312362 ] } },
{ "type": "Feature", "properties": { "SchoolName": "Tintic High", "Enrol_Elem": 0, "Enrol_Midl": 55, "Enrol_High": 52, "PublicElem": 0, "PublicMidl": 55, "PublicHigh": 52, "PriChaElem": 0, "PriChaMidl": 0, "PriChaHigh": 0 }, "geometry": { "type": "Point", "coordinates": [ -112.104744081800007, 39.959256483899999 ] } },
{ "type": "Feature", "properties": { "SchoolName": "Enterprise School", "Enrol_Elem": 434, "Enrol_Midl": 0, "Enrol_High": 0, "PublicElem": 434, "PublicMidl": 0, "PublicHigh": 0, "PriChaElem": 0, "PriChaMidl": 0, "PriChaHigh": 0 }, "geometry": { "type": "Point", "coordinates": [ -113.719839871600001, 37.569965175199997 ] } },
{ "type": "Feature", "properties": { "SchoolName": "Mt. Loafer School", "Enrol_Elem": 761, "Enrol_Midl": 0, "Enrol_High": 0, "PublicElem": 761, "PublicMidl": 0, "PublicHigh": 0, "PriChaElem": 0, "PriChaMidl": 0, "PriChaHigh": 0 }, "geometry": { "type": "Point", "coordinates": [ -111.677509827, 40.0393295517 ] } },
{ "type": "Feature", "properties": { "SchoolName": "Park School", "Enrol_Elem": 412, "Enrol_Midl": 0, "Enrol_High": 0, "PublicElem": 412, "PublicMidl": 0, "PublicHigh": 0, "PriChaElem": 0, "PriChaMidl": 0, "PriChaHigh": 0 }, "geometry": { "type": "Point", "coordinates": [ -111.643309274399996, 40.110738071 ] } },
{ "type": "Feature", "properties": { "SchoolName": "Park View School", "Enrol_Elem": 447, "Enrol_Midl": 0, "Enrol_High": 0, "PublicElem": 447, "PublicMidl": 0, "PublicHigh": 0, "PriChaElem": 0, "PriChaMidl": 0, "PriChaHigh": 0 }, "geometry": { "type": "Point", "coordinates": [ -111.731144328499994, 40.038514302400003 ] } },
{ "type": "Feature", "properties": { "SchoolName": "Rees School", "Enrol_Elem": 667, "Enrol_Midl": 0, "Enrol_High": 0, "PublicElem": 667, "PublicMidl": 0, "PublicHigh": 0, "PriChaElem": 0, "PriChaMidl": 0, "PriChaHigh": 0 }, "geometry": { "type": "Point", "coordinates": [ -111.629035979700006, 40.117097917199999 ] } },
{ "type": "Feature", "properties": { "SchoolName": "Hurricane School", "Enrol_Elem": 643, "Enrol_Midl": 0, "Enrol_High": 0, "PublicElem": 643, "PublicMidl": 0, "PublicHigh": 0, "PriChaElem": 0, "PriChaMidl": 0, "PriChaHigh": 0 }, "geometry": { "type": "Point", "coordinates": [ -113.305702198399999, 37.182338464600001 ] } },
{ "type": "Feature", "properties": { "SchoolName": "Wayne High", "Enrol_Elem": 0, "Enrol_Midl": 0, "Enrol_High": 139, "PublicElem": 0, "PublicMidl": 0, "PublicHigh": 139, "PriChaElem": 0, "PriChaMidl": 0, "PriChaHigh": 0 }, "geometry": { "type": "Point", "coordinates": [ -111.551921532400002, 38.343692779199998 ] } },
{ "type": "Feature", "properties": { "SchoolName": "Red Mountain School", "Enrol_Elem": 440, "Enrol_Midl": 0, "Enrol_High": 0, "PublicElem": 440, "PublicMidl": 0, "PublicHigh": 0, "PriChaElem": 0, "PriChaMidl": 0, "PriChaHigh": 0 }, "geometry": { "type": "Point", "coordinates": [ -113.673478688499998, 37.165542404299998 ] } },
{ "type": "Feature", "properties": { "SchoolName": "Santa Clara School", "Enrol_Elem": 507, "Enrol_Midl": 0, "Enrol_High": 0, "PublicElem": 507, "PublicMidl": 0, "PublicHigh": 0, "PriChaElem": 0, "PriChaMidl": 0, "PriChaHigh": 0 }, "geometry": { "type": "Point", "coordinates": [ -113.652238884200003, 37.1369432941 ] } },
{ "type": "Feature", "properties": { "SchoolName": "Sage Creek School", "Enrol_Elem": 676, "Enrol_Midl": 0, "Enrol_High": 0, "PublicElem": 676, "PublicMidl": 0, "PublicHigh": 0, "PriChaElem": 0, "PriChaMidl": 0, "PriChaHigh": 0 }, "geometry": { "type": "Point", "coordinates": [ -111.598867250200001, 40.150910168099998 ] } },
{ "type": "Feature", "properties": { "SchoolName": "Salem School", "Enrol_Elem": 528, "Enrol_Midl": 0, "Enrol_High": 0, "PublicElem": 528, "PublicMidl": 0, "PublicHigh": 0, "PriChaElem": 0, "PriChaMidl": 0, "PriChaHigh": 0 }, "geometry": { "type": "Point", "coordinates": [ -111.676728077099995, 40.0535648181 ] } },
{ "type": "Feature", "properties": { "SchoolName": "Springdale School", "Enrol_Elem": 46, "Enrol_Midl": 0, "Enrol_High": 0, "PublicElem": 46, "PublicMidl": 0, "PublicHigh": 0, "PriChaElem": 0, "PriChaMidl": 0, "PriChaHigh": 0 }, "geometry": { "type": "Point", "coordinates": [ -112.999307799199997, 37.189233480699997 ] } },
{ "type": "Feature", "properties": { "SchoolName": "Santaquin School", "Enrol_Elem": 512, "Enrol_Midl": 0, "Enrol_High": 0, "PublicElem": 512, "PublicMidl": 0, "PublicHigh": 0, "PriChaElem": 0, "PriChaMidl": 0, "PriChaHigh": 0 }, "geometry": { "type": "Point", "coordinates": [ -111.7939594236, 39.974242358399998 ] } },
{ "type": "Feature", "properties": { "SchoolName": "Taylor School", "Enrol_Elem": 470, "Enrol_Midl": 0, "Enrol_High": 0, "PublicElem": 470, "PublicMidl": 0, "PublicHigh": 0, "PriChaElem": 0, "PriChaMidl": 0, "PriChaHigh": 0 }, "geometry": { "type": "Point", "coordinates": [ -111.740352104199999, 40.043111999700002 ] } },
{ "type": "Feature", "properties": { "SchoolName": "Bates School", "Enrol_Elem": 789, "Enrol_Midl": 0, "Enrol_High": 0, "PublicElem": 789, "PublicMidl": 0, "PublicHigh": 0, "PriChaElem": 0, "PriChaMidl": 0, "PriChaHigh": 0 }, "geometry": { "type": "Point", "coordinates": [ -111.953615339, 41.318011546800001 ] } },
{ "type": "Feature", "properties": { "SchoolName": "Washington School", "Enrol_Elem": 418, "Enrol_Midl": 0, "Enrol_High": 0, "PublicElem": 418, "PublicMidl": 0, "PublicHigh": 0, "PriChaElem": 0, "PriChaMidl": 0, "PriChaHigh": 0 }, "geometry": { "type": "Point", "coordinates": [ -113.503937997400001, 37.135761199 ] } },
{ "type": "Feature", "properties": { "SchoolName": "Spring City School", "Enrol_Elem": 157, "Enrol_Midl": 0, "Enrol_High": 0, "PublicElem": 157, "PublicMidl": 0, "PublicHigh": 0, "PriChaElem": 0, "PriChaMidl": 0, "PriChaHigh": 0 }, "geometry": { "type": "Point", "coordinates": [ -111.487928423499994, 39.480076221499999 ] } },
{ "type": "Feature", "properties": { "SchoolName": "North Sanpete Middle", "Enrol_Elem": 0, "Enrol_Midl": 408, "Enrol_High": 0, "PublicElem": 0, "PublicMidl": 408, "PublicHigh": 0, "PriChaElem": 0, "PriChaMidl": 0, "PriChaHigh": 0 }, "geometry": { "type": "Point", "coordinates": [ -111.571373630899998, 39.523460107799998 ] } },
{ "type": "Feature", "properties": { "SchoolName": "Hurricane Middle", "Enrol_Elem": 0, "Enrol_Midl": 761, "Enrol_High": 0, "PublicElem": 0, "PublicMidl": 761, "PublicHigh": 0, "PriChaElem": 0, "PriChaMidl": 0, "PriChaHigh": 0 }, "geometry": { "type": "Point", "coordinates": [ -113.294218153800003, 37.182612690500001 ] } },
{ "type": "Feature", "properties": { "SchoolName": "H Guy Child School", "Enrol_Elem": 469, "Enrol_Midl": 0, "Enrol_High": 0, "PublicElem": 469, "PublicMidl": 0, "PublicHigh": 0, "PriChaElem": 0, "PriChaMidl": 0, "PriChaHigh": 0 }, "geometry": { "type": "Point", "coordinates": [ -111.964628274700004, 41.162322674400002 ] } },
{ "type": "Feature", "properties": { "SchoolName": "Green Acres School", "Enrol_Elem": 515, "Enrol_Midl": 0, "Enrol_High": 0, "PublicElem": 515, "PublicMidl": 0, "PublicHigh": 0, "PriChaElem": 0, "PriChaMidl": 0, "PriChaHigh": 0 }, "geometry": { "type": "Point", "coordinates": [ -111.960333356600003, 41.293247855499999 ] } },
{ "type": "Feature", "properties": { "SchoolName": "Hurricane High", "Enrol_Elem": 0, "Enrol_Midl": 0, "Enrol_High": 1062, "PublicElem": 0, "PublicMidl": 0, "PublicHigh": 1062, "PriChaElem": 0, "PriChaMidl": 0, "PriChaHigh": 0 }, "geometry": { "type": "Point", "coordinates": [ -113.294708261099998, 37.174466987300001 ] } },
{ "type": "Feature", "properties": { "SchoolName": "Hooper School", "Enrol_Elem": 668, "Enrol_Midl": 0, "Enrol_High": 0, "PublicElem": 668, "PublicMidl": 0, "PublicHigh": 0, "PriChaElem": 0, "PriChaMidl": 0, "PriChaHigh": 0 }, "geometry": { "type": "Point", "coordinates": [ -112.121174528899999, 41.1645749204 ] } },
{ "type": "Feature", "properties": { "SchoolName": "Farr West School", "Enrol_Elem": 767, "Enrol_Midl": 0, "Enrol_High": 0, "PublicElem": 767, "PublicMidl": 0, "PublicHigh": 0, "PriChaElem": 0, "PriChaMidl": 0, "PriChaHigh": 0 }, "geometry": { "type": "Point", "coordinates": [ -112.032622896700005, 41.307675518300002 ] } },
{ "type": "Feature", "properties": { "SchoolName": "Kanesville School", "Enrol_Elem": 865, "Enrol_Midl": 0, "Enrol_High": 0, "PublicElem": 865, "PublicMidl": 0, "PublicHigh": 0, "PriChaElem": 0, "PriChaMidl": 0, "PriChaHigh": 0 }, "geometry": { "type": "Point", "coordinates": [ -112.061898100700006, 41.208160370800002 ] } },
{ "type": "Feature", "properties": { "SchoolName": "Lakeview School", "Enrol_Elem": 448, "Enrol_Midl": 0, "Enrol_High": 0, "PublicElem": 448, "PublicMidl": 0, "PublicHigh": 0, "PriChaElem": 0, "PriChaMidl": 0, "PriChaHigh": 0 }, "geometry": { "type": "Point", "coordinates": [ -112.029540878500001, 41.173169978099999 ] } },
{ "type": "Feature", "properties": { "SchoolName": "Majestic School", "Enrol_Elem": 860, "Enrol_Midl": 0, "Enrol_High": 0, "PublicElem": 860, "PublicMidl": 0, "PublicHigh": 0, "PriChaElem": 0, "PriChaMidl": 0, "PriChaHigh": 0 }, "geometry": { "type": "Point", "coordinates": [ -111.987415948099994, 41.303150469800002 ] } },
{ "type": "Feature", "properties": { "SchoolName": "Jeremy Ranch School", "Enrol_Elem": 555, "Enrol_Midl": 0, "Enrol_High": 0, "PublicElem": 555, "PublicMidl": 0, "PublicHigh": 0, "PriChaElem": 0, "PriChaMidl": 0, "PriChaHigh": 0 }, "geometry": { "type": "Point", "coordinates": [ -111.568203583200003, 40.7533938073 ] } },
{ "type": "Feature", "properties": { "SchoolName": "Treasure Mtn. Junior High School", "Enrol_Elem": 0, "Enrol_Midl": 784, "Enrol_High": 0, "PublicElem": 0, "PublicMidl": 784, "PublicHigh": 0, "PriChaElem": 0, "PriChaMidl": 0, "PriChaHigh": 0 }, "geometry": { "type": "Point", "coordinates": [ -111.490415757899996, 40.669262107900003 ] } },
{ "type": "Feature", "properties": { "SchoolName": "Lomond View School", "Enrol_Elem": 473, "Enrol_Midl": 0, "Enrol_High": 0, "PublicElem": 473, "PublicMidl": 0, "PublicHigh": 0, "PriChaElem": 0, "PriChaMidl": 0, "PriChaHigh": 0 }, "geometry": { "type": "Point", "coordinates": [ -111.997580619100006, 41.324034247900002 ] } },
{ "type": "Feature", "properties": { "SchoolName": "Pioneer School", "Enrol_Elem": 439, "Enrol_Midl": 0, "Enrol_High": 0, "PublicElem": 439, "PublicMidl": 0, "PublicHigh": 0, "PriChaElem": 0, "PriChaMidl": 0, "PriChaHigh": 0 }, "geometry": { "type": "Point", "coordinates": [ -112.017510061699994, 41.264239425900001 ] } },